"","USAF","WBAN","STATION.NAME","CTRY","ST","CALL","station_lat","station_lon","ELEV.M.","BEGIN","END","CLIMATE.REGION","era5_lat","era5_lon","dist"
"1",10010,99999,"JAN MAYEN(NOR-NAVY)","NO","","ENJA",70.933,-8.667,9,19310101,20170502,"",70.9,-8.7,3.86489820442611
"2",10014,99999,"SORSTOKKEN","NO","","ENSO",59.792,5.341,48.8,19861120,20170502,"",59.8,5.3,2.46276325176784
"3",10040,99999,"NY-ALESUND II","NO","","ENAS",78.917,11.933,8,19730101,20140523,"",78.9,11.9,2.02008048594628
"4",10080,99999,"LONGYEAR","SV","","ENSB",78.246,15.466,26.8,19750929,20170502,"",78.2,15.5,5.1786379276779
"5",10100,99999,"ANDOYA","NO","","ENAN",69.293,16.144,13.1,19310103,20170502,"",69.3,16,5.72044088772125
"6",10230,99999,"BARDUFOSS","NO","","ENDU",69.056,18.54,76.8,19400713,20170502,"",69.1,18.5,5.14968902431571
"7",10250,99999,"TROMSO","NO","","ENTC",69.683,18.919,9.4,19730101,20170502,"",69.7,18.9,2.0298228671142
"8",10280,99999,"BJORNOYA ISLAND","NO","","ENBJ",74.517,19.017,18,19310103,20170502,"",74.5,19,1.95877151757371
"9",10460,99999,"SORKJOSEN","NO","","ENSR",69.787,20.959,4.9,19750905,20170502,"",69.8,21,2.13997249087215
"10",10470,99999,"KAUTOKEINO II","NO","","ENKA",69.017,23.067,307,19730101,20170502,"",69,23.1,2.30501120524465
"11",10490,99999,"ALTA","NO","","ENAT",69.976,23.372,2.7,19730101,20170502,"",70,23.4,2.87673368841083
"12",10520,99999,"HAMMERFEST AP","NO","","ENHF",70.683,23.683,81,19401008,20170502,"",70.7,23.7,1.99320039438974
"13",10590,99999,"BANAK","NO","","ENNA",70.069,24.973,7.6,19730101,20170502,"",70.1,24.9,4.42392567010328
"14",10680,99999,"HONNINGSVAG/VALAN","NO","","ENHV",71.017,25.983,14,19800604,20170502,"",71,26,1.99011744354
"15",10740,99999,"MEHAMN","NO","","ENMH",71.033,27.833,13,19750905,20170502,"",71,27.8,3.86301899051094
"16",10830,99999,"BERLEVAG","NO","","ENBV",70.867,29.033,13,19750905,20170502,"",70.8,29,7.55529193934734
"17",10860,99999,"BATSFJORD","NO","","ENBS",70.6,29.693,149.4,20110928,20170502,"",70.6,29.7,0.25883205629486
"18",10880,99999,"VADSO","NO","","ENVD",70.067,29.85,39,19750905,20170502,"",70.1,29.9,4.13399642712449
"19",10882,99999,"ROROS","NO","","ENRO",62.578,11.342,626.1,20050405,20170502,"",62.6,11.3,3.26047054775741
"20",10884,99999,"GEITERYGGEN","NO","","ENSN",59.185,9.567,141.1,20050405,20151109,"",59.2,9.6,2.51554463969567
"21",10890,99999,"HOYBUKTMOEN","NO","","ENKR",69.726,29.893,86.3,19401101,20170502,"",69.7,29.9,2.90688980297159
"22",10990,99999,"VARDO AP / SVARTNES","NO","","ENSS",70.355,31.045,12.8,20110928,20170502,"",70.4,31,5.28430145956163
"23",11120,99999,"BRONNOY","NO","","ENBN",65.461,12.218,7.6,19730101,20170502,"",65.4,12.2,6.84140942979976
"24",11133,99999,"DAGALI","NO","","ENDI",60.417,8.513,798,19860509,20030427,"",60.4,8.5,2.02286488135255
"25",11160,99999,"STOKKA","NO","","ENST",65.95,12.467,17.1,19730401,20170502,"",66,12.5,5.76341701856317
"26",11220,99999,"KJAERSTAD","NO","","ENMS",65.784,13.215,72.2,19881014,20170502,"",65.8,13.2,1.90818555308817
"27",11410,99999,"LEKNES","NO","","ENLK",68.15,13.617,26,19730620,20170502,"",68.2,13.7,6.54058855749606
"28",11510,99999,"MOIRANA","NO","","ENRA",66.367,14.3,70,19730401,20170502,"",66.4,14.3,3.67354319617837
"29",11520,99999,"BODO","NO","","ENBO",67.269,14.365,12.8,19400917,20170502,"",67.3,14.5,6.75172625743082
"30",11610,99999,"SVOLVAER/HELLE","NO","","ENSH",68.25,14.667,9,19730620,20170502,"",68.3,14.7,5.72966353619744
"31",11620,99999,"STORKMARKNES/SKAGEN","NO","","ENSK",68.583,15.017,3,19730620,20170502,"",68.6,14.9,5.11690202151022
"32",11830,99999,"EVENES","NO","","ENEV",68.491,16.678,25.6,19750905,20170502,"",68.5,16.7,1.34525506866548
"33",11930,99999,"NARVIK III/FRAMNES","NO","","ENNK",68.467,17.5,23,20010706,20170403,"",68.5,17.6,5.49223232170895
"34",12090,99999,"ORSTA-VOLDA/HOVDEN","NO","","ENOV",62.183,6.067,74,19841211,20170502,"",62.2,6.1,2.55309925112827
"35",12170,99999,"ARO","NO","","ENML",62.745,7.263,3,19760201,20170502,"",62.8,7.3,6.40601935205451
"36",12410,99999,"ORLAND","NO","","ENOL",63.699,9.604,8.5,19730101,20170502,"",63.7,9.7,4.73634762129546
"37",12710,99999,"VAERNES","NO","","ENVA",63.458,10.94,17.1,19400413,20170502,"",63.5,10.9,5.08062967994152
"38",12820,99999,"RORVIK/RYUM","NO","","ENRM",64.85,11.233,14,19950901,20170502,"",64.9,11.2,5.78039281560996
"39",12900,99999,"NAMSOS AIRPORT","NO","","ENNM",64.467,11.583,2,19730401,20170502,"",64.5,11.6,3.7629081586793
"40",13110,99999,"FLESLAND","NO","","ENBR",60.293,5.218,51.8,19730101,20170502,"",60.3,5.2,1.26215060539568
"41",13200,99999,"SANDANE/ANDA","NO","","ENSD",61.833,6.117,60,19810904,20170502,"",61.8,6.1,3.78071145592376
"42",13230,99999,"BRINGELAND","NO","","ENBL",61.393,5.764,327,19840502,20170502,"",61.4,5.8,2.07078076514376
"43",13470,99999,"SOGNDAL HAUKASEN","NO","","ENSG",61.156,7.137,511,19850118,20170502,"",61.2,7.1,5.28523831000727
"44",13680,99999,"LEIRIN","NO","","ENFG",61.016,9.288,822,19881014,20170502,"",61,9.3,1.89514284948535
"45",13839,99999,"HAMAR / STAFSBERG","NO","","ENHA",60.817,11.067,223,19870205,19900222,"",60.8,11.1,2.60604624436661
"46",13840,99999,"GARDERMOEN","NO","","ENGM",60.194,11.1,207.6,19400511,20170502,"",60.2,11.1,0.667916944760733
"47",14080,99999,"KARMOY","NO","","ENHD",59.345,5.208,26.2,19840909,20170502,"",59.3,5.3,7.238555353528
"48",14150,99999,"SOLA","NO","","ENZV",58.877,5.638,8.8,19400410,20170502,"",58.9,5.6,3.36642580944601
"49",14280,99999,"LISTA","NO","","ENLI",58.099,6.626,8.8,19730101,20070813,"",58.1,6.6,1.53352977605618
"50",14520,99999,"KJEVIK","NO","","ENCN",58.204,8.085,17.4,19400501,20170502,"",58.2,8.1,0.986114189019123
"51",14703,99999,"NOTODDEN","NO","","ENNO",59.566,9.212,19.2,19901019,20170502,"",59.6,9.2,3.84481373457175
"52",14825,99999,"TORP","NO","","ENTO",59.187,10.259,87.2,20050329,20170502,"",59.2,10.3,2.74917581976987
"53",14843,99999,"OSEBERG","NO","","ENOA",59.317,10.45,15,19901019,20170502,"",59.3,10.5,3.41355278473159
"54",14881,99999,"OSLO/FORNEBU","NO","","ENFB",59.9,10.617,17,20101123,20170502,"",59.9,10.6,0.949074635489454
"55",14940,99999,"RYGGE","NO","","ENRY",59.379,10.786,53,19730101,20170502,"",59.4,10.8,2.46873306117694
"56",20001,99999,"LJUNGBYHED","SW","","ESTL",56.083,13.213,42.7,20040510,20170502,"",56.1,13.2,2.05744098248614
"57",20440,99999,"KIRUNA","SW","","ESNQ",67.822,20.337,459.6,19770701,20170502,"",67.8,20.3,2.90127626774592
"58",20490,99999,"GALLIVARE","SW","","ESNG",67.132,20.815,313,19790803,20170502,"",67.1,20.8,3.62092013218668
"59",20570,99999,"KALLAX/LULEA (AFB)","SW","","ESPA",65.55,22.133,17,19550101,19770630,"",65.6,22.1,5.76953044103517
"60",20660,99999,"SUNDSVALL/HARNOSAND","SW","","ESNN",62.533,17.45,4,19550101,19770630,"",62.5,17.5,4.4825134540404
"61",20690,99999,"SODERHAMN (SWE-AFB)","SW","","ESCL",61.267,17.1,26,19550101,19770630,"",61.3,17.1,3.67354319617837
"62",20730,99999,"KARLSTAD          &","SW","","ESSQ",59.367,13.467,46,19550101,19770630,"",59.4,13.5,4.12251997736146
"63",20750,99999,"VASTERAS/HASSLO AFB","SW","","ESCD",59.583,16.633,6,19730101,19770630,"",59.6,16.6,2.65305299287716
"64",20760,99999,"UPPSALA           &","SW","","ESCM",59.883,17.6,21,19730101,19770630,"",59.9,17.6,1.89243134348497
"65",20770,99999,"STOCKHOLM/BROMMA  &","SW","","ESSB",59.35,17.95,15,19550101,19770630,"",59.4,18,6.24656466579678
"66",20790,99999,"SATENAS (SWE-AFB)","SW","","ESIB",58.433,12.7,54,19730101,19770630,"",58.4,12.7,3.67354319617695
"67",20870,99999,"JONKOPING         &","SW","","ESSJ",57.767,14.083,226,19550101,19770630,"",57.8,14.1,3.80956483348147
"68",20900,99999,"VISBY             &","SW","","ESSV",57.667,18.35,51,19550101,19770630,"",57.7,18.4,4.72745099982971
"69",20980,99999,"MALMO/STURUP","SW","","ESMS",55.55,13.367,72,19730101,19770630,"",55.6,13.4,5.94078898216707
"70",21010,99999,"HEMAVAN","SW","","ESUT",65.806,15.083,458.1,19730102,20170502,"",65.8,15.1,1.02360282121845
"71",21110,99999,"VIDSEL (SWE-AFB)","SW","","ESPE",65.867,20.133,180,19730102,19770630,"",65.9,20.1,3.96835925533837
"72",21280,99999,"GUNNARN","SW","","ESPD",65,17.7,283,19730101,20130402,"",65,17.7,0
"73",21420,99999,"JOKKMOKK","SW","","ESNJ",66.496,20.147,275.5,19770701,20000510,"",66.5,20.1,2.13341469917193
"74",21480,99999,"NORRKOPING/BRAVALLA","SW","","ESCK",58.617,16.117,27,19730101,19770630,"",58.6,16.1,2.13376906661188
"75",21500,99999,"NYKOPING/SKAVST AFB","SW","","ESCJ",58.783,16.917,42,19730101,19770630,"",58.8,16.9,2.13138808732311
"76",21550,99999,"HAGSHULT (SWE-AFB)","SW","","ESMV",57.3,14.133,169,19550101,19770630,"",57.3,14.1,1.98459613416663
"77",21590,99999,"FALLFORS","SW","","ESUF",65.12,20.77,195,19960801,20050629,"",65.1,20.8,2.63294495206162
"78",21630,99999,"LJUNGBYHED(SWE-AFB)","SW","","ESDA",56.083,13.233,43,19730101,19770630,"",56.1,13.2,2.78947021401555
"79",21660,99999,"RONNEBY (SWE-AFB)","SW","","ESDF",56.267,15.283,58,19730101,19770630,"",56.3,15.3,3.8207829169869
"80",21690,99999,"HEDEN","SW","","ESPJ",65.867,21.45,36,20020530,20020801,"",65.9,21.5,4.32053165249776
"81",22260,99999,"OSTERSUND","SW","","ESNZ",63.2,14.5,376,19350101,20170502,"",63.2,14.5,0
"82",22455,99999,"LYCKSELE","SW","","ESNL",64.548,18.716,214.9,19980408,20170502,"",64.5,18.7,5.39797800326761
"83",22590,99999,"KRAMFORS SOLLEFTEA","SW","","ESNK",63.049,17.769,10.4,19770701,20170502,"",63,17.8,5.67482338493191
"84",22670,99999,"ORNSKOLDSVIK","SW","","ESNO",63.408,18.99,107.9,19790802,20170502,"",63.4,19,1.02052248520055
"85",22860,99999,"UMEA","SW","","ESNU",63.792,20.283,7.3,19770701,20170502,"",63.8,20.3,1.22122102724674
"86",22930,99999,"SKELLEFTEA","SW","","ESNS",64.625,21.077,47.9,19790802,20170502,"",64.6,21.1,2.99165577066302
"87",23130,99999,"VISINGSO","SW","","ESGI",58.1,14.4,110,19731209,19731209,"",58.1,14.4,0
"88",23700,99999,"GAVLE/SANDVIKEN AFB","SW","","ESSK",60.6,16.95,68,19730828,19740123,"",60.6,17,2.73235772824061
"89",23710,99999,"BORLANGE (SWE-AFB)","SW","","ESSD",60.433,15.5,153,19730810,19731213,"",60.4,15.5,3.67354319617837
"90",23750,99999,"ESKILSTUNA(SWE-AFB&","SW","","ESSU",59.35,16.717,40,19800302,20030313,"",59.4,16.7,5.64884399955702
"91",23810,99999,"NORRKOPING/KUNGSANG","SW","","ESSP",58.583,16.25,5,19730728,19770630,"",58.6,16.2,3.46337354472364
"92",23980,99999,"KRISTIANSTAD/EVEROD","SW","","ESMK",55.917,14.083,23,19730708,19731106,"",55.9,14.1,2.16943819935581
"93",24040,99999,"ARVIKA","SW","","ESKV",59.667,12.583,75,19770701,20040224,"",59.7,12.6,3.79571209393971
"94",24100,99999,"MALUNG","SW","","EVSM",60.683,13.7,308,19770701,20110818,"",60.7,13.7,1.89243134348638
"95",24180,99999,"KARLSTAD","SW","","ESOK",59.445,13.337,107.3,19350101,20170502,"",59.4,13.3,5.42991375123343
"96",24283,99999,"OREBRO","SW","","ESOE",59.224,15.038,57.3,19910827,20170502,"",59.2,15,3.43891340583976
"97",24284,99999,"MORA","SW","","ESKM",60.958,14.511,193.2,19910827,20170502,"",61,14.5,4.71300679859977
"98",24285,99999,"TORSBY","SW","","ESST",60.158,12.991,119.8,20070226,20170502,"",60.2,13,4.70188971148502
"99",24373,99999,"ARBOGA","SW","","ESQO",59.387,15.924,10.1,20070226,20070227,"",59.4,15.9,1.98608509983633
"100",24460,99999,"VASTERAS","SW","","ESOW",59.589,16.634,6.4,19770701,20170502,"",59.6,16.6,2.27351896120187
"101",24600,99999,"ARLANDA","SW","","ESSA",59.652,17.919,41.8,19770630,20170502,"",59.7,17.9,5.4489993485217
"102",24690,99999,"TULLINGE","SW","","ESCN",59.183,17.917,54,20010601,20170502,"",59.2,17.9,2.12620231267688
"103",24853,99999,"SKAVSTA","SW","","ESKN",58.789,16.912,42.7,19910827,20170502,"",58.8,16.9,1.40657334968373
"104",25103,99999,"TROLLHATTAN VANERSBORG","SW","","ESGT",58.318,12.345,41.8,19910827,20170502,"",58.3,12.3,3.30763059226982
"105",25105,99999,"LIDKOPING","SW","","ESGL",58.466,13.174,61,20071016,20120830,"",58.5,13.2,4.07607210838161
"106",25120,99999,"SAVE","SW","","ESGP",57.775,11.87,18,19350101,20170102,"",57.8,11.9,3.30365504431419
"107",25140,99999,"ARVIDSJAUR","SW","","ESNX",65.59,19.282,379.5,19770701,20170502,"",65.6,19.3,1.38731769938583
"108",25260,99999,"LANDVETTER","SW","","ESGG",57.663,12.28,154.2,19771003,20170502,"",57.7,12.3,4.28736093547028
"109",25350,99999,"SKOVDE","SW","","ESGR",58.456,13.973,98.8,19910827,20170502,"",58.5,14,5.14396011801468
"110",25500,99999,"JONKOPING","SW","","ESGJ",57.758,14.069,225.9,19310101,20170502,"",57.8,14.1,5.02444488451947
"111",25620,99999,"MALMEN","SW","","ESCF",58.402,15.526,93.9,19770701,20170502,"",58.4,15.5,1.53278837327711
"112",25625,99999,"SAAB","SW","","ESSL",58.406,15.681,52.4,19951012,20170502,"",58.4,15.7,1.2938932692879
"113",25635,99999,"ANGELHOLM","SW","","ESDB",56.283,12.833,47,20040810,20170502,"",56.3,12.8,2.78165185265221
"114",25650,99999,"HULTSFRED","SW","","ESSF",57.526,15.823,111.6,19790806,20170502,"",57.5,15.8,3.20439429238971
"115",26040,99999,"HALMSTAD","SW","","ESMT",56.691,12.82,30.8,19770701,20170502,"",56.7,12.8,1.5805770417843
"116",26410,99999,"KRONOBERG","SW","","ESMX",56.929,14.728,185.9,19790802,20170502,"",56.9,14.7,3.6492231849159
"117",26720,99999,"KALMAR","SW","","ESMQ",56.686,16.288,5.2,19350101,20170502,"",56.7,16.2,5.6005003930582
"118",27200,99999,"KITTILA","FI","","EFKT",67.701,24.847,196.3,20130101,20170502,"FINLAND",67.7,24.8,1.98839696288558
"119",27480,99999,"VARKAUS","FI","","EFVR",62.171,27.869,87.2,20130101,20160511,"FINLAND",62.2,27.9,3.60756569643545
"120",28070,99999,"IVALO","FI","","EFIV",68.607,27.405,146.6,19520101,20170502,"FINLAND",68.6,27.4,0.805258905378224
"121",28075,99999,"ENONTEKIO","FI","","EFET",68.363,23.424,306.3,19980419,20170502,"FINLAND",68.4,23.4,4.2348022761145
"122",28360,99999,"SODANKYLA","FI","","EFSO",67.395,26.619,183.5,19170101,20170502,"FINLAND",67.4,26.6,0.985191338686105
"123",28440,99999,"PELLO CENTRE","FI","","EFPE",66.767,23.967,85.9,19730101,20170502,"FINLAND",66.8,24,3.94867234723
"124",28450,99999,"ROVANIEMI","FI","","EFRO",66.565,25.83,196.6,19730101,20170502,"FINLAND",66.6,25.8,4.11604350496277
"125",28640,99999,"KEMI TORNIO","FI","","EFKE",65.782,24.599,18.6,19520101,20170502,"FINLAND",65.8,24.6,2.00427073507716
"126",28690,99999,"KUUSAMO","FI","","EFKS",65.988,29.239,264,19090101,20170502,"FINLAND",66,29.2,2.21451522801922
"127",28740,99999,"HAILUOTO ISLAND","FI","","EFHL",65.033,24.8,6,19730101,20170502,"FINLAND",65,24.8,3.67354319617837
"128",28744,99999,"YLIVIESKA","FI","","EFYL",64.061,24.716,76.8,19920615,19950608,"FINLAND",64.1,24.7,4.41071393249859
"129",28750,99999,"OULU","FI","","EFOU",64.93,25.355,14.3,19060101,20170502,"FINLAND",64.9,25.4,3.95768826870019
"130",28790,99999,"SUOMUSSALMI","FI","","EFSU",64.9,29.017,224,19730101,20010309,"FINLAND",64.9,29,0.802768281077144
"131",28970,99999,"KAJAANI","FI","","EFKI",64.285,27.692,147.2,19160101,20170502,"FINLAND",64.3,27.7,1.71389506696894
"132",29030,99999,"KRUUNUPYY","FI","","EFKK",63.721,23.143,25.3,19601101,20170502,"FINLAND",63.7,23.1,3.15588659829281
"133",29110,99999,"VAASA","FI","","EFVA",63.051,21.762,5.8,19170101,20170502,"FINLAND",63.1,21.8,5.78120270786801
"134",29130,99999,"KAUHAVA","FI","","EFKA",63.127,23.051,46,19730101,20170502,"FINLAND",63.1,23.1,3.88825662991944
"135",29150,99999,"VIITASAARI","FI","","EFVI",63.083,25.867,132,19730101,20170502,"FINLAND",63.1,25.9,2.518984635702
"136",29170,99999,"KUOPIO","FI","","EFKU",63.007,27.798,98.5,19060101,20170502,"FINLAND",63,27.8,0.785762894913787
"137",29240,99999,"AHTARI MYLLYMAKI","FI","","EFHT",62.533,24.217,159.7,19730101,20170502,"FINLAND",62.5,24.2,3.77593025440742
"138",29244,99999,"ILMAJOKI","FI","","EFIL",62.7,22.833,92,19920520,19920615,"FINLAND",62.7,22.8,1.68486893191656
"139",29245,99999,"SEINAJOKI","FI","","EFSI",62.692,22.832,91.7,19990114,20170502,"FINLAND",62.7,22.8,1.8609552873117
"140",29290,99999,"JOENSUU","FI","","EFJO",62.663,29.608,121.3,19520101,20170502,"FINLAND",62.7,29.6,4.13904945281789
"141",29350,99999,"JYVASKYLA","FI","","EFJY",62.399,25.678,139.9,19170101,20170502,"FINLAND",62.4,25.7,1.14009194323391
"142",29440,99999,"TAMPERE PIRKKALA","FI","","EFTP",61.414,23.604,118.9,19060101,20170502,"FINLAND",61.4,23.6,1.57297509479573
"143",29450,99999,"HALLI","FI","","EFHA",61.856,24.787,146,19730101,20170502,"FINLAND",61.9,24.8,4.9453261704851
"144",29470,99999,"MIKKELI","FI","","EFMI",61.687,27.202,100.3,19730101,20170502,"FINLAND",61.7,27.2,1.45099914266584
"145",29480,99999,"SAVONLINNA","FI","","EFSA",61.943,28.945,94.8,19840813,20170502,"FINLAND",61.9,28.9,5.33593132832182
"146",29520,99999,"PORI","FI","","EFPO",61.462,21.8,13.4,19520101,20170502,"FINLAND",61.5,21.8,4.2301406501447
"147",29580,99999,"LAPPEENRANTA","FI","","EFLP",61.045,28.144,106.4,19730101,20170502,"FINLAND",61,28.1,5.54298779997249
"148",29660,99999,"UTTI","FI","","EFUT",60.896,26.938,103.3,19730101,20170502,"FINLAND",60.9,26.9,2.10502992050591
"149",29700,99999,"MARIEHAMN","FI","","EFMA",60.122,19.898,5.2,19170101,20170502,"FINLAND",60.1,20,6.165495368851
"150",29720,99999,"TURKU","FI","","EFTU",60.514,22.263,49.1,19010101,20170502,"FINLAND",60.5,22.3,2.55747428615941
"151",29740,99999,"HELSINKI VANTAA","FI","","EFHK",60.317,24.963,54.6,19520101,20170502,"FINLAND",60.3,25,2.78273416152855
"152",29750,99999,"HELSINKI MALMI","FI","","EFHF",60.255,25.043,17.4,19170101,20170306,"FINLAND",60.3,25,5.54312505108339
"153",30020,99999,"BALTASOUND NO.2","UK","","EGPW",60.75,-0.85,15,19730101,20170502,"",60.8,-0.9,6.19395344246244
"154",30064,99999,"SCATSTA","UK","","EGPM",60.433,-1.296,24.7,19811015,20170502,"",60.4,-1.3,3.6801147802055
"155",30180,99999,"WOODVALE","UK","","EGOW",53.582,-3.056,11.3,20050620,20170502,"",53.6,-3,4.20781822934191
"156",30220,99999,"BENBECULA","UK","","EGPL",57.481,-7.363,5.8,19730101,20170502,"",57.5,-7.4,3.06163713359035
"157",30260,99999,"STORNOWAY","UK","","EGPO",58.216,-6.331,7.9,19291001,20170502,"",58.2,-6.4,4.42129062643554
"158",30590,99999,"INVERNESS","UK","","EGPE",57.543,-4.048,9.4,19730102,20170502,"",57.5,-4,5.5808270591093
"159",30620,99999,"TAIN RANGE (SAWS)","UK","","EGQA",57.817,-3.967,4,19891019,20170502,"",57.8,-4,2.72240138593894
"160",30660,99999,"KINLOSS","UK","","EGQK",57.649,-3.561,6.7,19730101,20170502,"",57.6,-3.6,5.92937626621891
"161",30680,99999,"LOSSIEMOUTH","UK","","EGQS",57.705,-3.339,12.8,19730103,20170502,"",57.7,-3.3,2.38555062924969
"162",30750,99999,"WICK","UK","","EGPC",58.459,-3.093,38.4,19291001,20170502,"",58.4,-3.1,6.58050834722856
"163",30910,99999,"DYCE","UK","","EGPD",57.202,-2.198,65.5,19260602,20170502,"",57.2,-2.2,0.253205414919908
"164",31000,99999,"TIREE","UK","","EGPU",56.499,-6.869,11.6,19291001,20170502,"",56.5,-6.9,1.90795699337034
"165",31053,99999,"ISLAY (PORT ELLEN)","UK","","EGPI",55.683,-6.25,18,19880107,19880112,"",55.7,-6.3,3.66383084390047
"166",31110,99999,"MACHRIHANISH","UK","","EGQJ",55.433,-5.7,10,19730101,20170502,"",55.4,-5.7,3.67354319617766
"167",31140,99999,"OBAN","UK","","EGEO",56.417,-5.467,4,19780902,20170502,"",56.4,-5.5,2.77707842370997
"168",31320,99999,"WEST FREUGH (AUT)","UK","","EGOY",54.85,-4.95,12,19830804,20170502,"",54.9,-5,6.421507736364
"169",31350,99999,"PRESTWICK","UK","","EGPK",55.509,-4.587,19.8,19440101,20170502,"",55.5,-4.6,1.29439973723689
"170",31394,99999,"CAMPBELTOWN","UK","","EGEC",55.437,-5.686,12.8,19990118,20170502,"",55.4,-5.7,4.21273364500293
"171",31400,99999,"GLASGOW","UK","","EGPF",55.872,-4.433,7.9,19291001,20170502,"",55.9,-4.4,3.7363193416429
"172",31560,99999,"PITREAVIE","UK","","EGRQ",56.05,-3.417,40,19820318,19850801,"",56.1,-3.4,5.66529675814688
"173",31573,99999,"PERTH/SCONE","UK","","EGPT",56.45,-3.367,121,19900424,19930701,"",56.5,-3.4,5.92423065523268
"174",31600,99999,"EDINBURGH","UK","","EGPH",55.95,-3.373,41.1,19730101,20170502,"",56,-3.4,5.81451310299979
"175",31634,99999,"DUNDEE","UK","","EGPN",56.452,-3.026,5.2,19830404,20170502,"",56.5,-3,5.57731032648191
"176",31650,99999,"SPADEADAM","UK","","EGOM",55.05,-2.55,325,19920911,20170502,"",55.1,-2.5,6.41358795087633
"177",31710,99999,"LEUCHARS","UK","","EGQL",56.373,-2.868,11.6,19291001,20170502,"",56.3,-2.9,8.3627824678179
"178",32040,99999,"ISLE OF MAN","IM","","EGNS",54.083,-4.624,16.8,19730101,20170502,"",54.1,-4.7,5.31052372624565
"179",32140,99999,"WALNEY ISLAND","UK","","EGNL",54.131,-3.264,14.3,19830804,20170502,"",54.2,-3.2,8.74045188622257
"180",32145,99999,"WARTON","UK","","EGNO",53.745,-2.883,16.8,20111130,20170502,"",53.7,-2.9,5.13299988758938
"181",32220,99999,"CARLISLE","UK","","EGNC",54.938,-2.809,57.9,19730101,20170502,"",54.9,-2.8,4.26915085662616
"182",32400,99999,"BOULMER","UK","","EGQM",55.424,-1.603,21.3,19751001,20170502,"",55.4,-1.6,2.67838548065527
"183",32433,99999,"NEWCASTLE","UK","","EGNT",55.038,-1.692,81.1,19880105,20170502,"",55,-1.7,4.26084044751608
"184",32570,99999,"LEEMING","UK","","EGXE",54.292,-1.535,40.2,19730101,20170502,"",54.3,-1.5,2.44198140879261
"185",32610,99999,"DISHFORTH","UK","","EGXD",54.137,-1.42,35.7,19920501,20160606,"",54.1,-1.4,4.32058794718846
"186",32635,99999,"DURHAM TEES VALLEY AIRPORT","UK","","EGNV",54.509,-1.429,36.6,19730101,20170502,"",54.5,-1.4,2.12540403736716
"187",32643,99999,"TOPCLIFFE","UK","","EGXZ",54.206,-1.382,28,19940720,20170502,"",54.2,-1.4,1.34898260500149
"188",32660,99999,"LINTON ON OUSE","UK","","EGXU",54.049,-1.253,16.2,19730101,20170502,"",54,-1.3,6.2609590599759
"189",33020,99999,"VALLEY","UK","","EGOV",53.248,-4.535,11.3,19260606,20170502,"",53.3,-4.5,6.23990030366201
"190",33180,99999,"BLACKPOOL","UK","","EGNH",53.772,-3.029,10.4,19730101,20170502,"",53.8,-3,3.65417874835379
"191",33210,99999,"HAWARDEN","UK","","EGNR",53.178,-2.978,13.7,19850904,20170502,"",53.2,-3,2.85499771868997
"192",33233,99999,"LIVERPOOL","UK","","EGGP",53.334,-2.85,24.4,19900424,20170502,"",53.3,-2.8,5.03796467279309
"193",33340,99999,"MANCHESTER","UK","","EGCC",53.354,-2.275,78.3,19330930,20170502,"",53.4,-2.3,5.38309761928652
"194",33350,99999,"MANCHESTER/BARTON","UK","","EGCB",53.483,-2.25,37,19730101,19860729,"",53.5,-2.3,3.81403706778554
"195",33463,99999,"LEEDS BRADFORD","UK","","EGNM",53.866,-1.661,207.6,19880105,20170502,"",53.9,-1.7,4.56877802316057
"196",33464,99999,"PENZANCE HELIPORT","UK","","EGHK",50.12,-5.52,4,20050105,20121031,"",50.1,-5.6,6.12988345915752
"197",33475,99999,"SHEFFIELD CITY","UK","","EGSY",53.394,-1.388,70.4,19980408,20020914,"",53.4,-1.4,1.03949356287008
"198",33550,99999,"CHURCH FENTON","UK","","EGXG",53.834,-1.196,8.8,19730101,20131219,"",53.8,-1.2,3.79398074543507
"199",33723,99999,"BARKSTON HEATH","UK","","EGYE",52.962,-0.562,111.9,19951129,20170502,"",53,-0.6,4.93768143955665
"200",33730,99999,"SCAMPTON","UK","","EGXP",53.308,-0.551,61.6,19730101,20170502,"",53.3,-0.6,3.37900122001809
"201",33735,99999,"HUMBERSIDE","UK","","EGNJ",53.574,-0.351,36.9,19750109,20170502,"",53.6,-0.4,4.34291960972573
"202",33770,99999,"WADDINGTON","UK","","EGXW",53.166,-0.524,70.4,19500926,20170502,"",53.2,-0.5,4.10955856548765
"203",33790,99999,"CRANWELL","UK","","EGYD",53.03,-0.483,66.4,19290801,20170502,"",53,-0.5,3.5283145272486
"204",33830,99999,"LECONFIELD","UK","","EGXV",53.883,-0.433,9,19730101,19781126,"",53.9,-0.4,2.87541220793074
"205",33850,99999,"DONNA NOOK","UK","","EGXX",53.467,0.067,8,19921208,20170502,"",53.5,0,5.76126243021438
"206",33851,99999,"DONNA NOOK RAF","UK","","EGXS",53.475,0.152,3,20110512,20170502,"",53.4,0.2,8.93514286500723
"207",33910,99999,"CONINGSBY","UK","","EGXC",53.093,-0.166,7.6,19430801,20170502,"",53.1,-0.2,2.40257002552575
"208",33920,99999,"WAINFLEET (AUT)","UK","","EGYW",53.083,0.267,5,19840614,20170502,"",53.1,0.2,4.86243715574711
"209",34053,99999,"LLANBEDR","UK","","EGOD",52.812,-4.124,9.1,19940503,20070227,"",52.8,-4.1,2.09592161675936
"210",34054,99999,"DONCASTER SHEFFIELD","UK","","EGCN",53.475,-1.004,16.8,20050507,20170502,"",53.5,-1,2.79556990770088
"211",34055,99999,"NORTH DENES AIRPORT","UK","","EGSD",52.65,-1.783,2,20100726,20150430,"",52.7,-1.8,5.68301938922124
"212",34140,99999,"SHAWBURY","UK","","EGOS",52.798,-2.668,75.9,19730101,20170502,"",52.8,-2.7,2.16524353287959
"213",34145,99999,"COSFORD","UK","","EGWC",52.64,-2.306,82.9,19940831,20170502,"",52.6,-2.3,4.47120449800002
"214",34185,99999,"NOTTINGHAM EAST MIDLANDS","UK","","EGNX",52.831,-1.328,93.3,19730101,20170502,"",52.8,-1.3,3.93161013554977
"215",34530,99999,"COTTESMORE","UK","","EGXJ",52.736,-0.649,140.5,19730101,20111109,"",52.7,-0.6,5.1939490402082
"216",34620,99999,"WITTERING","UK","","EGXT",52.613,-0.476,83.2,19730301,20170502,"",52.6,-0.5,2.17408547760448
"217",34690,99999,"HOLBEACH (AUT)","UK","","EGYH",52.867,0.15,3,19851201,20170502,"",52.8,0.1,8.1813705987301
"218",34820,99999,"MARHAM","UK","","EGYM",52.648,0.551,22.9,19490401,20170502,"",52.6,0.6,6.28612313803936
"219",34850,99999,"WEST RAYNHAM","UK","","EGYV",52.783,0.733,76,19730101,19760114,"",52.8,0.7,2.91824579967702
"220",34870,99999,"SCULTHORPE (AF MET)","UK","","EGUP",52.85,0.767,65,19780707,20011018,"",52.9,0.8,5.99132680014236
"221",34875,99999,"HIGH WICOMBE(USAF)","UK","","EGUH",51.62,-0.77,75,20040901,20041220,"",51.6,-0.8,3.04268804838734
"222",34920,99999,"NORWICH","UK","","EGSH",52.676,1.283,35.7,19871202,20170502,"",52.7,1.3,2.90751825191044
"223",34950,99999,"COLTISHALL","UK","","EGYC",52.755,1.358,20.1,19730101,20060404,"",52.8,1.4,5.75262225774294
"224",35020,99999,"ABERPORTH","UK","","EGUC",52.133,-4.567,134,19730101,20170502,"",52.1,-4.6,4.31084788984251
"225",35340,99999,"BIRMINGHAM","UK","","EGBB",52.454,-1.748,99.7,19730101,20170502,"",52.5,-1.7,6.06740613466802
"226",35413,99999,"COVENTRY","UK","","EGBE",52.37,-1.48,81.4,19880105,20170502,"",52.4,-1.5,3.60546642485977
"227",35471,99999,"BITTESWELL","UK","","EGBC",52.45,-1.25,134,19730101,19790629,"",52.5,-1.3,6.51721152762649
"228",35573,99999,"CRANFIELD","UK","","EGTC",52.072,-0.617,109.1,19900208,20170502,"",52.1,-0.6,3.32679845368976
"229",35620,99999,"ALCONBURY RAF","UK","","EGWZ",52.367,-0.217,47.9,19990515,20050710,"",52.4,-0.2,3.85086370742414
"230",35660,99999,"WYTON","UK","","EGUY",52.357,-0.108,41.1,19501003,20151004,"",52.4,-0.1,4.81750958076845
"231",35715,99999,"CAMBRIDGE","UK","","EGSC",52.205,0.175,14.3,19770201,20170502,"",52.2,0.2,1.79413728411665
"232",35770,35046,"MILDENHALL RAF","UK","","EGUN",52.367,0.483,10,19990101,20170502,"",52.4,0.5,3.85086370742414
"233",35830,35034,"LAKENHEATH RAF","UK","","EGUL",52.417,0.567,10,19990102,20170502,"",52.4,0.6,2.93312297493403
"234",35900,99999,"WATTISHAM","UK","","EGUW",52.127,0.956,86.6,19730101,20170502,"",52.1,1,4.25220077713867
"235",35905,99999,"NEWTON","UK","","EGXN",52.967,-0.983,55,19950210,20011103,"",53,-1,3.84616555974052
"236",35953,99999,"WOODBRIDGE RAF","UK","","EGVG",52.083,1.4,29,19541001,20070307,"",52.1,1.4,1.89243134348638
"237",35963,35048,"BENTWATERS RAF","UK","","EGVJ",52.133,1.433,26,19930104,19930331,"",52.1,1.4,4.31084788984251
"238",36050,99999,"PEMBRY SANDS","UK","","EGOP",51.717,-4.367,3,19930301,20170502,"",51.7,-4.3,4.9941325975823
"239",36095,99999,"SWANSEA","UK","","EGFH",51.605,-4.068,91.1,19770126,19990127,"",51.6,-4.1,2.2814816180188
"240",36283,99999,"BRISTOL FILTON","UK","","EGTG",51.519,-2.591,68.9,19940718,20121221,"",51.5,-2.6,2.20507135438674
"241",36333,99999,"GLOUCESTERSHIRE","UK","","EGBJ",51.894,-2.167,30.8,19771001,20170502,"",51.9,-2.2,2.36321053311603
"242",36383,99999,"KEMBLE","UK","","EGBP",51.668,-2.057,132,19880105,19920331,"",51.7,-2.1,4.63649521222207
"243",36440,99999,"FAIRFORD","UK","","EGVA",51.682,-1.79,87.2,19520610,20170502,"",51.7,-1.8,2.11924912595579
"244",36490,99999,"BRIZE NORTON","UK","","EGVN",51.75,-1.584,87.8,19510801,20170502,"",51.8,-1.6,5.67403028898749
"245",36553,99999,"UPPER HEYFORD RAF","UK","","EGUA",51.933,1.25,133,19511101,19931215,"",51.9,1.2,5.02806107056655
"246",36580,99999,"BENSON","UK","","EGUB",51.616,-1.096,68.9,19730101,20170502,"",51.6,-1.1,1.80245134872716
"247",36584,99999,"COLERNE","UK","","EGUO",51.439,-2.286,180.7,19420401,20170323,"",51.4,-2.3,4.44891403540735
"248",36720,99999,"NORTHOLT","UK","","EGWU",51.553,-0.418,37.8,19730101,20170502,"",51.6,-0.4,5.37816765974982
"249",36733,99999,"LUTON","UK","","EGGW",51.875,-0.368,160.3,19880105,20170502,"",51.9,-0.4,3.54668822835991
"250",36830,99999,"STANSTED","UK","","EGSS",51.885,0.235,106.1,19730101,20170502,"",51.9,0.2,2.92741468899664
"251",36881,99999,"WEATHERSFIELD RAF","UK","","EGVT",51.967,0.5,101,19740117,19770617,"",52,0.5,3.67354319617837
"252",36913,99999,"SOUTHEND","UK","","EGMC",51.571,0.696,14.9,19880105,20170502,"",51.6,0.7,3.24009932672505
"253",37070,99999,"CHIVENOR","UK","","EGDC",51.087,-4.15,8.2,19730101,20170502,"",51.1,-4.1,3.78342370789722
"254",37150,99999,"CARDIFF","UK","","EGFF",51.397,-3.343,67.1,19730101,20170502,"",51.4,-3.3,3.00506052288654
"255",37160,99999,"ST ATHAN","UK","","EGDX",51.405,-3.436,49.7,20010706,20170502,"",51.4,-3.4,2.56127115102855
"256",37243,99999,"BRISTOL","UK","","EGGD",51.383,-2.719,189.6,19880105,20170502,"",51.4,-2.7,2.30719605684891
"257",37400,99999,"LYNEHAM","UK","","EGDL",51.505,-1.993,156.4,19730101,20170502,"",51.5,-2,0.738297650596638
"258",37435,99999,"GREENHAM COMMON RAF","UK","","EGVI",51.383,-1.283,122,19760428,19920417,"",51.4,-1.3,2.23063829725458
"259",37440,99999,"UPAVON","UK","","EGDJ",51.3,-1.767,175,19730101,20040827,"",51.3,-1.8,2.29685588680602
"260",37460,99999,"BOSCOMBE DOWN","UK","","EGDM",51.152,-1.747,124.1,19310101,20170502,"",51.2,-1.7,6.26979628043927
"261",37490,99999,"MIDDLE WALLOP","UK","","EGVP",51.15,-1.567,91,19730809,20170502,"",51.2,-1.6,6.02365037743852
"262",37610,99999,"ODIHAM","UK","","EGVO",51.234,-0.943,123.4,19730101,20170502,"",51.2,-0.9,4.82854790481376
"263",37630,99999,"BRACKNELL/BEAUFORT","UK","","EGRR",51.383,-0.783,74,19730101,20151107,"",51.4,-0.8,2.23063829725458
"264",37660,99999,"FARNBOROUGH (MIL)","UK","","EGUF",51.283,-0.767,72,19291001,20051011,"",51.3,-0.8,2.97637312789268
"265",37663,99999,"BIGGIN HILL","UK","","EGKB",51.331,0.033,182.3,19880105,20170502,"",51.3,0,4.14496363585153
"266",37680,99999,"FARNBOROUGH","UK","","EGLF",51.276,-0.776,72.5,19880501,20170502,"",51.3,-0.8,3.15113304463098
"267",37683,99999,"CITY","UK","","EGLC",51.505,0.055,5.8,19880129,20170502,"",51.5,0.1,3.16752552147697
"268",37720,99999,"HEATHROW","UK","","EGLL",51.478,-0.461,25.3,19481201,20170502,"",51.5,-0.5,3.64766167076621
"269",37760,99999,"GATWICK","UK","","EGKK",51.148,-0.19,61.6,19730101,20170502,"",51.1,-0.2,5.38882099524655
"270",37790,99999,"LONDON WEA CENTER","UK","","EGRB",51.5,-0.117,39,19920401,20100201,"",51.5,-0.1,1.17806620750494
"271",37815,99999,"LEAVESDEN","UK","","EGTI",51.683,-0.417,102,19730101,19950409,"",51.7,-0.4,2.22654045662954
"272",37951,99999,"ASHFORD","UK","","EGMK",51.15,0.883,107,19730101,19741221,"",51.2,0.9,5.69102197891746
"273",37970,35047,"MANSTON","UK","","EGMH",51.35,1.333,50,19300228,20170502,"",51.3,1.3,6.02078663804813
"274",38060,99999,"LANDS END ARPT","UK","","EGHC",50.064,-5.709,63,19730308,20170502,"",50.1,-5.7,4.05874146873587
"275",38090,99999,"CULDROSE","UK","","EGDR",50.086,-5.256,81.4,19730101,20170502,"",50.1,-5.2,4.29224069562199
"276",38170,99999,"ST MAWGAN","UK","","EGDG",50.433,-5,118.9,19730101,20081201,"",50.4,-5,3.67354319617766
"277",38270,99999,"PLYMOUTH/MOUNTBATTE","UK","","EGDB",50.35,-4.117,27,19730101,20170502,"",50.4,-4.1,5.69532451572467
"278",38273,99999,"PLYMOUTH","UK","","EGHD",50.423,-4.106,145.1,19880318,20111223,"",50.4,-4.1,2.59548748615715
"279",38390,99999,"EXETER","UK","","EGTE",50.734,-3.414,31.1,19730101,20170502,"",50.7,-3.4,3.91137559624167
"280",38530,99999,"YEOVILTON","UK","","EGDY",51.009,-2.639,22.9,19730101,20170502,"",51,-2.6,2.90982056496577
"281",38620,99999,"BOURNEMOUTH","UK","","EGHH",50.78,-1.843,11.6,19730101,20170502,"",50.8,-1.8,3.75679702585737
"282",38650,99999,"SOUTHAMPTON","UK","","EGHI",50.95,-1.357,13.4,19730101,20170502,"",51,-1.4,6.3296409137862
"283",38760,99999,"SHOREHAM","UK","","EGKA",50.836,-0.297,2.1,19861201,20170502,"",50.9,-0.3,7.12756427184347
"284",38873,99999,"LYDD","UK","","EGMD",50.956,0.939,4,19880105,20170502,"",51,0.9,5.60917063609304
"285",38950,99999,"JERSEY","JE","","EGJJ",49.208,-2.196,84.4,19730101,20170502,"",49.2,-2.2,0.936872603420348
"286",39084,99999,"LONDONDERRY EGLINTON","UK","","EGAE",55.043,-7.161,6.7,19900424,20170502,"",55,-7.2,5.39510029342744
"287",39170,99999,"ALDERGROVE","UK","","EGAA",54.658,-6.216,81.7,19300228,20170502,"",54.7,-6.2,4.78747827099392
"288",39240,99999,"CITY","UK","","EGAC",54.618,-5.873,4.6,19730101,20170502,"",54.6,-5.9,2.65426369879863
"289",39550,99999,"CORK","EI","","EICK",51.841,-8.491,153,19730101,20170502,"IRELAND",51.8,-8.5,4.60592188213961
"290",39620,99999,"SHANNON","EI","","EINN",52.702,-8.925,14,19730101,20170502,"IRELAND",52.7,-9,5.06415425028145
"291",39670,99999,"CASEMENT","EI","","EIME",53.302,-6.451,97.2,19870201,20170502,"IRELAND",53.3,-6.5,3.2673568088901
"292",39689,99999,"DUBLIN WEATHER CENTER","EI","","EIDB",53.433,-6.25,68,20160414,20160624,"IRELAND",53.4,-6.3,4.94967679449281
"293",39690,99999,"DUBLIN","EI","","EIDW",53.421,-6.27,73.8,19730101,20170502,"IRELAND",53.4,-6.3,3.07043650200947
"294",39730,99999,"CONNAUGHT","EI","","EIKN",53.91,-8.818,202.7,19291001,20170502,"IRELAND",53.9,-8.8,1.62255723952983
"295",40130,99999,"STYKKISHOLMUR","IC","","BIST",65.083,-22.733,8,19730101,20170502,"",65,-22.7,9.36864316612683
"296",40131,99999,"ISAFJORDUR","IC","","BIIS",66.058,-23.135,2.4,20090403,20170502,"",66.1,-23.2,5.51973767600036
"297",40180,16201,"KEFLAVIK NAVAL AIR STATION","IC","","BIKF",63.967,-22.6,52.1,19421001,20170502,"",64,-22.6,3.67354319617837
"298",40300,99999,"REYKJAVIK","IC","","BIRK",64.13,-21.941,14.6,19310101,20170502,"",64.1,-21.9,3.88883111401925
"299",40630,99999,"AKUREYRI","IC","","BIAR",65.66,-18.073,1.8,19310103,20170502,"",65.7,-18.1,4.62162635527555
"300",40655,99999,"BILDUDALUR","IC","","BIBD",65.641,-23.546,5.5,20130220,20170502,"",65.6,-23.5,5.02978962239574
"301",40770,99999,"RAUFARHOFN","IC","","BIRG",66.45,-15.95,10,19490101,20090217,"",66.5,-15.9,5.99298040681377
"302",40820,99999,"HORNAFJORDUR","IC","","BIHN",64.296,-15.227,7.3,19730101,20170502,"",64.3,-15.2,1.37746691122723
"303",40850,99999,"SKJALDTHINGSSTADIR","IC","","BIVO",65.75,-14.833,48,19750311,20170502,"",65.7,-14.8,5.76722980844475
"304",40890,99999,"EGILSSTADIR","IC","","BIEG",65.283,-14.401,23.2,19490101,20170502,"",65.3,-14.4,1.89300332635732
"305",42020,99999,"THULE AIR BASE","GL","","BGTL",76.531,-68.703,76.5,19511101,20170502,"",76.5,-68.7,3.45178274615281
"306",42023,99999,"QAARSUT MITTARFIA","GL","","BGUM",70.733,-52.7,89,20040831,20170502,"",70.7,-52.7,3.67354319617837
"307",42024,99999,"SISIMIUT","GL","","BGSS",66.95,-53.733,50,20040510,20160625,"",67,-53.7,5.7484422276126
"308",42090,99999,"UPERNAVIK AWS","GL","","BGUP",72.77,-56.17,63,19840901,20060114,"",72.7,-56.2,7.85514721411203
"309",42200,99999,"AASIAAT (EGEDESMINDE)","GL","","BGEM",68.7,-52.85,41,19430109,20170502,"",68.7,-52.9,2.02184704462415
"310",42300,99999,"SISIMIUT /HOLSTEINS","GL","","BGHB",66.917,-53.667,9,19490101,20051227,"",66.9,-53.6,3.48396910790782
"311",42310,99999,"SONDRE STROMFJORD","GL","","BGSF",67.017,-50.689,50.3,19411201,20170502,"",67,-50.7,1.95193657935848
"312",42600,99999,"FREDERIKSHAAB","GL","","BGFH",62.017,-49.667,15,19490101,20140115,"",62,-49.6,3.97932428990769
"313",42605,99999,"FREDICKSHAB/PAAMIUT AIRPORT","GL","","BGPT",61.983,-49.7,13,20080423,20170502,"",62,-49.6,5.55958657163164
"314",42610,99999,"GROENNEDAL","GL","","BGGD",61.233,-48.1,32,19430202,20051015,"",61.2,-48.1,3.67354319617695
"315",42700,99999,"NARSARSUAQ","GL","","BGBW",61.161,-45.426,34.1,19410722,20170502,"",61.2,-45.4,4.56013982209132
"316",42720,99999,"JULIANEHAAB","GL","","BGJH",60.717,-46.05,34,19360501,20170502,"",60.7,-46,3.31616511814358
"317",42801,99999,"NARSSAQ","GL","","BGNS",60.9,-45.967,30,19440613,19490101,"",60.9,-46,1.78657400896217
"318",43300,99999,"DANEBORG (AUT)","GL","","BGDB",74.3,-20.217,44,19450901,20170502,"",74.3,-20.3,2.50021741731482
"319",43380,99999,"MESTERS VIG","GL","","BGMV",72.25,-24.333,10,19730101,20060418,"",72.3,-24.3,5.67722652001625
"320",43390,99999,"SCORESBYSUND","GL","","BGSC",70.483,-21.95,69,19360501,20161207,"",70.5,-21.8,5.88858770214023
"321",43410,99999,"CONSTABLE POINT","GL","","BGCO",70.75,-22.65,10,19860510,20170502,"",70.8,-22.6,5.85995427988722
"322",43500,99999,"APUTITEQ (AUT)","GL","","BGAT",67.783,-32.3,18,19500801,19870131,"",67.8,-32.3,1.89243134348497
"323",43600,99999,"TASIILAQ","GL","","BGAM",65.6,-37.633,52,19360501,20170502,"",65.6,-37.6,1.51755695009701
"324",43610,99999,"KULUSUK LUFTHAVN","GL","","BGKK",65.583,-37.15,37,19431005,20170502,"",65.6,-37,7.15504081571898
"325",43900,99999,"PRINS CHRISTIAN","GL","","BGPC",60.033,-43.117,19,19430101,20170502,"",60,-43.2,5.90049114267455
"326",44640,99999,"DYE 2","GL","","BGRN",66.481,-46.283,2098,20110201,20130212,"",66.5,-46.3,2.24574838239194
"327",60100,99999,"VAGAR","FO","","EKVG",62.064,-7.277,85.3,19740805,20170502,"",62.1,-7.3,4.18295689746719
"328",60240,99999,"THISTED","DA","","EKTS",57.069,8.705,7,19730621,20070201,"DENMARK",57,8.7,7.68701349442045
"329",60300,99999,"FLYVESTATION AALBORG","DA","","EKYT",57.093,9.849,3,19400401,20170502,"DENMARK",57.1,9.8,3.06385769911993
"330",60340,99999,"SINDAL","DA","","EKSN",57.504,10.229,28,19820501,20170502,"DENMARK",57.5,10.2,1.79069576079436
"331",60480,99999,"HADSUND","DA","","EKHS",56.717,10.117,2,19830203,20020403,"DENMARK",56.7,10.1,2.15877391003541
"332",60540,99999,"LINDTORP AIRPORT","DA","","EKHO",56.383,8.433,15,19770508,20070307,"DENMARK",56.4,8.4,2.77774292058951
"333",60600,99999,"KARUP","DA","","EKKA",56.297,9.125,51.8,19730101,20170502,"DENMARK",56.3,9.1,1.57988524123993
"334",60620,99999,"SKIVE","DA","","EKSV",56.55,9.173,22.6,19761201,20070307,"DENMARK",56.6,9.2,5.80699537952132
"335",60660,99999,"STAUNING","DA","","EKVJ",55.99,8.354,5.2,19730621,20170502,"DENMARK",56,8.4,3.07257403711487
"336",60700,99999,"AARHUS","DA","","EKAH",56.3,10.619,25,19730101,20170502,"DENMARK",56.3,10.6,1.17353497980519
"337",60800,99999,"ESBJERG","DA","","EKEB",55.526,8.553,29.6,19730621,20170502,"DENMARK",55.5,8.6,4.14164551890901
"338",60840,99999,"HERNING/SKINDERHOLM","DA","","EKHG",56.183,9.033,51,19770401,20020108,"DENMARK",56.2,9,2.78556096655975
"339",60994,99999,"OKSBOEL","DA","","EKOX",55.583,8.25,17,20050530,20140911,"DENMARK",55.6,8.2,3.67070009597029
"340",61000,99999,"VANDEL","DA","","EKVA",55.7,9.2,73,19730102,20050213,"DENMARK",55.7,9.2,0
"341",61040,99999,"BILLUND","DA","","EKBI",55.74,9.152,75.3,19730101,20170502,"DENMARK",55.7,9.2,5.37445267210967
"342",61080,99999,"KOLDING VAMDRUP","DA","","EKVD",55.436,9.331,43.6,19900911,20170502,"DENMARK",55.4,9.3,4.46054967129186
"343",61100,99999,"SKRYDSTRUP","DA","","EKSP",55.226,9.264,43,19730101,20170502,"DENMARK",55.2,9.3,3.68843935990972
"344",61180,99999,"SONDERBORG","DA","","EKSB",54.964,9.792,7.3,19730621,20170502,"DENMARK",55,9.8,4.03995325405596
"345",61200,99999,"ODENSE","DA","","EKOD",55.477,10.331,17.1,19730101,20170502,"DENMARK",55.5,10.3,3.22151038597903
"346",61240,99999,"SYDFYNS/TASINGE ISL","DA","","EKST",55.017,10.567,6,19830401,20170502,"DENMARK",55,10.6,2.83180287774837
"347",61245,99999,"AVNO AIR BASE","DA","","EKAV",55.083,11.783,4,20120704,20170418,"DENMARK",55.1,11.8,2.18039802911873
"348",61430,99999,"LOLLAND FALSTER MARIBO","DA","","EKMB",54.699,11.44,4.9,19860401,20070209,"DENMARK",54.7,11.4,2.57551120436125
"349",61600,99999,"VAERLOSE","DA","","EKVL",55.767,12.343,18,19391101,20070227,"DENMARK",55.8,12.3,4.55412900646256
"350",61700,99999,"ROSKILDE","DA","","EKRK",55.586,12.131,44.5,19770419,20170502,"DENMARK",55.6,12.1,2.4962607016239
"351",61900,99999,"BORNHOLM RONNE","DA","","EKRN",55.063,14.76,15.8,19740110,20170502,"DENMARK",55.1,14.9,9.82580636419181
"352",62100,99999,"VALKENBURG","NL","","EHVB",52.167,4.433,1,19490101,20160503,"NETHERLANDS",52.2,4.4,4.30907390503477
"353",62350,99999,"DE KOOIJ","NL","","EHKD",52.923,4.781,0.9,19730101,20170502,"NETHERLANDS",52.9,4.8,2.86046405814076
"354",62400,99999,"SCHIPHOL","NL","","EHAM",52.309,4.764,-3.4,19320503,20170502,"NETHERLANDS",52.3,4.8,2.6473463399684
"355",62600,99999,"DE BILT","NL","","EHDB",52.1,5.183,4,19310101,20170502,"NETHERLANDS",52.1,5.2,1.16249256385153
"356",62650,99999,"SOESTERBERG","NL","","EHSB",52.127,5.276,20.1,19511001,20081120,"NETHERLANDS",52.1,5.3,3.42426404959697
"357",62690,99999,"LELYSTAD","NL","","EHLE",52.46,5.527,-4,19940901,20170502,"NETHERLANDS",52.5,5.5,4.81436683721258
"358",62693,99999,"VLISSINGEN","NL","","EHFS",51.45,3.6,8,20040510,20170502,"NETHERLANDS",51.5,3.6,5.56597453966333
"359",62700,99999,"LEEUWARDEN","NL","","EHLW",53.229,5.761,0.9,19490101,20170502,"NETHERLANDS",53.2,5.8,4.14492858320118
"360",62750,99999,"DEELEN","NL","","EHDL",52.061,5.873,48.2,19491017,20170502,"NETHERLANDS",52.1,5.9,4.71806349891857
"361",62800,99999,"EELDE","NL","","EHGG",53.12,6.579,5.2,19310601,20170502,"NETHERLANDS",53.1,6.6,2.63173153289361
"362",62900,99999,"TWENTHE","NL","","EHTW",52.27,6.874,34.7,19490101,20170502,"NETHERLANDS",52.3,6.9,3.77990210551527
"363",63400,99999,"WOENSDRECHT","NL","","EHWO",51.449,4.342,19.2,19490103,20170502,"NETHERLANDS",51.4,4.3,6.184855696582
"364",63440,99999,"ROTTERDAM","NL","","EHRD",51.957,4.437,-4.6,19570101,20170502,"NETHERLANDS",52,4.4,5.41750092999815
"365",63500,99999,"GILZE RIJEN","NL","","EHGR",51.567,4.932,14.9,19490101,20170502,"NETHERLANDS",51.6,4.9,4.28886622901156
"366",63700,99999,"EINDHOVEN","NL","","EHEH",51.45,5.375,22.6,19490101,20170502,"NETHERLANDS",51.5,5.4,5.82964395535944
"367",63750,99999,"VOLKEL","NL","","EHVK",51.656,5.709,21.9,19510601,20170502,"NETHERLANDS",51.7,5.7,4.93729796959955
"368",63800,99999,"MAASTRICHT","NL","","EHBK",50.912,5.77,114.3,19490101,20170502,"NETHERLANDS",50.9,5.8,2.4938659593579
"369",64000,99999,"KOKSIJDE","BE","","EBFN",51.09,2.653,6.1,19490101,20170502,"BELGIUM",51.1,2.7,3.46931285926379
"370",64070,99999,"OOSTENDE","BE","","EBOS",51.199,2.862,4,19360103,20170502,"BELGIUM",51.2,2.9,2.6529875080517
"371",64280,99999,"SEMMERZAKE","BE","","EBMT",50.933,3.667,37.5,19730101,20170502,"BELGIUM",50.9,3.7,4.34266573855332
"372",64310,99999,"GENT/INDUSTRIE-ZONE","BE","","EBGT",51.183,3.8,8,19791030,20170502,"BELGIUM",51.2,3.8,1.89243134348567
"373",64320,99999,"CHIEVRES AB","BE","","EBCV",50.576,3.831,58.8,19730101,20170502,"BELGIUM",50.6,3.8,3.45515293379944
"374",64324,99999,"LIEGE","BE","","EBLH",50.633,5.45,201,19990114,20100917,"BELGIUM",50.6,5.4,5.09583213920217
"375",64325,99999,"CASTEAU/HELI (MET)","BE","","EBCT",50.5,3.98,78,20100419,20170502,"BELGIUM",50.5,4,1.41615806743945
"376",64480,99999,"MELSBROEK (BEL-AFB)","BE","","EBMB",50.9,4.5,55,19951007,20050130,"BELGIUM",50.9,4.5,0
"377",64490,99999,"BRUSSELS SOUTH","BE","","EBCI",50.459,4.454,187.1,19730101,20170502,"BELGIUM",50.5,4.5,5.60796956441837
"378",64500,99999,"DEURNE","BE","","EBAW",51.189,4.46,11.9,19400605,20170502,"BELGIUM",51.2,4.5,3.04731229163164
"379",64505,99999,"BRUSSELLS (MIL)","BE","","EBWM",50.883,4.517,58,20061025,20111208,"BELGIUM",50.9,4.5,2.23747270795926
"380",64510,99999,"BRUSSELS NATL","BE","","EBBR",50.901,4.484,56.1,19300302,20170502,"BELGIUM",50.9,4.5,1.12879455678585
"381",64511,99999,"BERTRIX","BE","","EBBX",49.892,5.224,461.5,20061121,20080910,"BELGIUM",49.9,5.2,1.93778837646038
"382",64520,99999,"BRASSCHAAT (MIL)","BE","","EBBT",51.333,4.5,23,19730101,20060608,"BELGIUM",51.3,4.5,3.67354319617837
"383",64560,99999,"FLORENNES","BE","","EBFS",50.243,4.646,285,19490101,20170502,"BELGIUM",50.2,4.6,5.80062098071384
"384",64580,99999,"BEAUVECHAIN","BE","","EBBE",50.759,4.768,112.8,19730101,20170502,"BELGIUM",50.8,4.8,5.08963488804141
"385",64620,99999,"WEELDE","BE","","EBWE",51.395,4.96,32,19990418,20011012,"BELGIUM",51.4,5,2.83335826108242
"386",64630,99999,"GOETSENHOVEN (MIL)","BE","","EBTN",50.783,4.95,81,19730101,20030731,"BELGIUM",50.8,4.9,3.99513825319908
"387",64650,99999,"SCHAFFEN","BE","","EBDT",51,5.067,54,19730101,20170502,"BELGIUM",51,5.1,2.31183562145827
"388",64700,99999,"SINT TRUIDEN","BE","","EBST",50.792,5.202,75,19520121,20070307,"BELGIUM",50.8,5.2,0.901606221603772
"389",64760,99999,"SAINT HUBERT MIL","BE","","EBSU",50.036,5.404,588.3,19490101,20170502,"BELGIUM",50,5.4,4.01770203923205
"390",64765,99999,"SAINT HUBERT","BE","","EBSH",50.033,5.4,557,20090604,20170502,"BELGIUM",50,5.4,3.67354319617837
"391",64780,99999,"LIEGE","BE","","EBLG",50.637,5.443,200.9,19490101,20170502,"BELGIUM",50.6,5.4,5.11748251451775
"392",64790,99999,"KLEINE BROGEL","BE","","EBBL",51.168,5.47,61,19730101,20170502,"BELGIUM",51.2,5.5,4.13175981811507
"393",64810,99999,"GENK/ZWARTBERG","BE","","EBZW",50.933,5.5,63,19490101,20050102,"BELGIUM",50.9,5.5,3.67354319617766
"394",64900,99999,"SPA/LA SAUVENIERE","BE","","EBSP",50.483,5.917,482,19501001,20170502,"BELGIUM",50.5,5.9,2.24294321981825
"395",64901,99999,"SEMMERZAKE (BAFB)","BE","","EBSZ",50.933,3.65,37,20040510,20170502,"BELGIUM",50.9,3.7,5.08021355080327
"396",64960,99999,"ELSENBORN (MIL)","BE","","EBLB",50.467,6.183,570,19840501,20170502,"BELGIUM",50.5,6.2,3.86586448936214
"397",65900,99999,"LUXEMBOURG","LU","","ELLX",49.627,6.212,376.1,19490101,20170502,"LUXEMBOURG",49.6,6.2,3.12777076946001
"398",66040,99999,"NEUCHATEL (AUT)","SZ","","LSGN",47,6.95,487,19820114,20170502,"",47,6.9,3.79598544377398
"399",66045,99999,"LES EPLATURES","SZ","","LSGC",47.084,6.793,1026.6,20040803,20170502,"",47.1,6.8,1.85844376525033
"400",66099,99999,"DUBENDORF","SZ","","LSMD",47.399,8.648,448.1,20040903,20170502,"",47.4,8.6,3.61852241378828
"401",66110,99999,"ALPNACH","SZ","","LSMA",45.933,8.283,445,20050727,20070803,"",45.9,8.3,3.90234431608474
"402",66130,99999,"EMMEN","SZ","","LSME",47.092,8.305,426.7,20050727,20170502,"",47.1,8.3,0.967815667690053
"403",66140,99999,"MEIRINGEN","SZ","","LSMM",46.743,8.11,579.1,20050727,20170502,"",46.7,8.1,4.84719016713047
"404",66303,99999,"BERN BELP","SZ","","LSZB",46.914,7.497,510.2,19900424,20170502,"",46.9,7.5,1.57508492384928
"405",66304,99999,"SAMEDAN","SZ","","LSZS",46.534,9.884,1706.9,20070301,20170502,"",46.5,9.9,3.97836786802252
"406",66621,99999,"GRENCHEN","SZ","","LSZG",47.182,7.417,430.1,20040510,20170502,"",47.2,7.4,2.3809346150989
"407",66700,99999,"ZURICH","SZ","","LSZH",47.465,8.549,431.6,19550101,20170502,"",47.5,8.5,5.36370520241419
"408",66811,99999,"ST GALLEN ALTENRHEIN","SZ","","LSZR",47.485,9.561,398.1,20040510,20170502,"",47.5,9.6,3.37541617041893
"409",67000,99999,"GENEVA COINTRIN","SZ","","LSGG",46.238,6.109,430.1,19350101,20170502,"",46.2,6.1,4.28656249509019
"410",67200,99999,"SION","SZ","","LSGS",46.22,7.327,481.9,19550101,20170502,"",46.2,7.3,3.04679877121089
"411",67205,99999,"SION","SZ","","LSMS",46.22,7.32,482,20060710,20170502,"",46.2,7.3,2.70750218429699
"412",67620,99999,"LOCARNO - MAGADINO","SZ","","LSZL",46.17,8.88,198,19550101,20170502,"",46.2,8.9,3.67814401465836
"413",67700,99999,"LUGANO","SZ","","LSZA",46.004,8.911,278.9,19350101,20170502,"",46,8.9,0.960090171729195
"414",68065,99999,"BUOCHS AIRPORT / STANS","SZ","","LSZC",46.967,8.4,450,20080916,20170502,"",47,8.4,3.67354319617837
"415",70023,99999,"CAPTIEUX","FR","","LFYJ",44.183,-0.267,132,19880105,19880129,"FRANCE",44.2,-0.3,3.2433250324766
"416",70030,99999,"LE TOUQUET PARIS PLAGE","FR","","LFAT",50.515,1.627,11,19730101,20170502,"FRANCE",50.5,1.6,2.53812451986596
"417",70050,99999,"ABBEVILLE","FR","","LFOI",50.143,1.832,67.1,19261004,20170502,"FRANCE",50.1,1.8,5.30371003972868
"418",70150,99999,"LESQUIN","FR","","LFQQ",50.562,3.089,47.9,19450301,20170502,"FRANCE",50.6,3.1,4.30100853365959
"419",70170,99999,"EPINOY","FR","","LFQI",50.222,3.154,78.3,19730101,20120629,"FRANCE",50.2,3.2,4.09106490129158
"420",70240,99999,"MAUPERTUS","FR","","LFRC",49.65,-1.47,139.9,19360101,20170502,"FRANCE",49.6,-1.5,5.97160925595274
"421",70270,99999,"CARPIQUET","FR","","LFRK",49.173,-0.45,78,19730101,20170502,"FRANCE",49.2,-0.5,4.71892082774785
"422",70280,99999,"OCTEVILLE","FR","","LFOH",49.534,0.088,95.4,19310101,20170502,"FRANCE",49.6,0.1,7.39799084863733
"423",70310,99999,"ST GATIEN","FR","","LFRG",49.365,0.154,146,19730102,20170502,"FRANCE",49.4,0.2,5.12768501128956
"424",70330,99999,"VITTEFLEUR/ST. VALE","FR","","LFOS",49.833,0.65,83,19831208,20080622,"FRANCE",49.8,0.6,5.13740239582169
"425",70370,99999,"VALLEE DE SEINE","FR","","LFOP",49.384,1.175,156.1,19730101,20170502,"FRANCE",49.4,1.2,2.54037360013553
"426",70380,34061,"EVREUX","FR","","LFOE",49.017,1.217,138,19730101,20170502,"FRANCE",49,1.2,2.26322962722473
"427",70550,99999,"TILLE","FR","","LFOB",49.454,2.113,109.4,19360101,20170502,"FRANCE",49.5,2.1,5.20631187692484
"428",70570,99999,"CREIL","FR","","LFPC",49.254,2.519,88.7,19400713,20170502,"FRANCE",49.3,2.5,5.30335695436305
"429",70610,99999,"ST. QUENTIN/ROUPY","FR","","LFOW",49.817,3.2,101,19360103,20170502,"FRANCE",49.8,3.2,1.89243134348567
"430",70700,99999,"CHAMPAGNE","FR","","LFSR",49.31,4.05,95.1,19310105,20120523,"FRANCE",49.3,4.1,3.79608450335359
"431",70720,99999,"REIMS-PRUNAY","FR","","LFQA",49.217,4.15,96,19361010,20170502,"FRANCE",49.2,4.2,4.09926258163369
"432",70743,34072,"SUIPPES RANGE (MET)","FR","","LFFS",49.15,4.533,199,19880105,19980123,"FRANCE",49.2,4.5,6.06198536518713
"433",70750,99999,"CHARLEVILLE MEZIERES","FR","","LFQV",49.784,4.647,149,19400703,20170502,"FRANCE",49.8,4.6,3.81844998027197
"434",70891,99999,"CHAMBLEY AB","FR","","LCHM",49.033,5.867,266,19541108,19661202,"FRANCE",49,5.9,4.39311567632183
"435",70900,99999,"FRESCATY","FR","","LFSF",49.072,6.132,191.7,19360102,20130429,"FRANCE",49.1,6.1,3.89335299427996
"436",70930,99999,"METZ NANCY LORRAINE","FR","","LFJL",48.982,6.251,265.2,19920408,20170502,"FRANCE",49,6.3,4.10193231192442
"437",71060,99999,"LANDIVISIAU","FR","","LFRJ",48.53,-4.152,106.1,19730102,20170502,"FRANCE",48.5,-4.2,4.86633978557515
"438",71100,99999,"GUIPAVAS","FR","","LFRB",48.448,-4.419,99.1,19290801,20170502,"FRANCE",48.4,-4.4,5.5246080010069
"439",71180,99999,"LANNION","FR","","LFRO",48.754,-3.472,88.4,20010919,20170502,"FRANCE",48.8,-3.5,5.51730142160972
"440",71200,99999,"ARMOR","FR","","LFRT",48.538,-2.854,138.1,19860101,20170502,"FRANCE",48.5,-2.9,5.42203130687138
"441",71250,99999,"PLEURTUIT","FR","","LFRD",48.588,-2.08,66.8,19730101,20170502,"FRANCE",48.6,-2.1,1.98815148106642
"442",71300,99999,"ST JACQUES","FR","","LFRN",48.07,-1.735,37.8,19310105,20170502,"FRANCE",48.1,-1.7,4.23404844970029
"443",71340,99999,"LAVAL-ETRONNIER","FR","","LFOV",48.033,-0.733,97,19880621,20170502,"FRANCE",48,-0.7,4.41963936173453
"444",71390,99999,"ALENCON/VALFRAMBERT","FR","","LFOF",48.45,0.117,141,19730101,20170502,"FRANCE",48.5,0.1,5.70561532469229
"445",71400,99999,"CHATEAUDUN","FR","","LFOC",48.058,1.377,132,19730101,20170502,"FRANCE",48.1,1.4,4.97851688493331
"446",71430,99999,"CHARTRES/CHAMPOL","FR","","LFOR",48.467,1.517,156,19360617,20170502,"FRANCE",48.5,1.5,3.88179934577197
"447",71460,99999,"TOUSSUS LE NOBLE","FR","","LFPN",48.752,2.106,164,19730101,20170502,"FRANCE",48.8,2.1,5.36143413078476
"448",71470,99999,"VELIZY","FR","","LFPV",48.774,2.202,178,19420101,20170502,"FRANCE",48.8,2.2,2.89802156289063
"449",71490,99999,"ORLY","FR","","LFPO",48.725,2.359,88.7,19370601,20170502,"FRANCE",48.7,2.4,4.1005536692158
"450",71500,99999,"LE BOURGET","FR","","LFPB",48.969,2.441,66.4,19280104,20170502,"FRANCE",49,2.4,4.56949255412739
"451",71515,99999,"MAZAMET","FR","","LFCK",43.556,2.289,240.2,20061025,20170502,"FRANCE",43.6,2.3,4.97773888406956
"452",71530,99999,"VILLAROCHE","FR","","LFPM",48.605,2.671,92,19730328,20170502,"FRANCE",48.6,2.7,2.20615168670076
"453",71570,99999,"CHARLES DE GAULLE","FR","","LFPG",49.013,2.55,119.5,19740419,20170502,"FRANCE",49,2.6,3.92746887004143
"454",71604,99999,"PLOUJEAN","FR","","LFRU",48.603,-3.816,82.9,20141229,20170502,"FRANCE",48.6,-3.8,1.22426489810894
"455",71650,99999,"VATRY","FR","","LFOK",48.776,4.184,178.9,19751203,20170502,"FRANCE",48.8,4.2,2.91802407961604
"456",71680,99999,"BARBEREY","FR","","LFQB",48.322,4.017,118.3,19750618,20170502,"FRANCE",48.3,4,2.75352413414175
"457",71690,99999,"ROBINSON","FR","","LFSI",48.636,4.899,139.6,19420101,20170502,"FRANCE",48.6,4.9,4.00817729253463
"458",71704,99999,"DAMBLAIN (FAFB)","FR","","LFYD",48.1,5.65,390,19800807,19840329,"FRANCE",48.1,5.7,3.71713893516691
"459",71790,34051,"TOUL / ROSIERES","FR","","LFSL",48.783,5.983,286,19730101,20170502,"FRANCE",48.8,6,2.26619648200355
"460",71800,99999,"ESSEY","FR","","LFSN",48.692,6.23,228.9,19260404,20170502,"FRANCE",48.7,6.2,2.37740562574845
"461",71810,99999,"OCHEY","FR","","LFSO",48.583,5.955,337.1,19730101,20170502,"FRANCE",48.6,6,3.81567442340349
"462",71813,99999,"BRETIGNY SUR ORGE","FR","","LFPY",48.597,2.331,84,19980202,20070307,"FRANCE",48.6,2.3,2.30649669548583
"463",71825,99999,"MIRECOURT","FR","","LFSG",48.325,6.07,330.4,20070227,20170502,"FRANCE",48.3,6.1,3.56062870293334
"464",71900,99999,"ENTZHEIM","FR","","LFST",48.538,7.628,153.9,19310101,20170502,"FRANCE",48.5,7.6,4.70707607755058
"465",71970,99999,"MEYENHEIM","FR","","LFSC",47.917,7.4,211.2,19730101,20170502,"FRANCE",47.9,7.4,1.89243134348638
"466",72010,99999,"PLUGUFFAN","FR","","LFRQ",47.975,-4.168,90.5,19730102,20170502,"FRANCE",48,-4.2,3.6645990357862
"467",72050,99999,"LANN BIHOUE","FR","","LFRH",47.761,-3.44,48.8,19730101,20170502,"FRANCE",47.8,-3.4,5.27268560423379
"468",72100,99999,"VANNES/SENE","FR","","LFRV",47.6,-2.717,3,19870601,20170502,"FRANCE",47.6,-2.7,1.27607097069814
"469",72170,99999,"MONTOIR","FR","","LFRZ",47.312,-2.149,4,19730101,20170502,"FRANCE",47.3,-2.1,3.93254203677721
"470",72220,99999,"NANTES ATLANTIQUE","FR","","LFRS",47.153,-1.611,27.4,19370601,20170502,"FRANCE",47.2,-1.6,5.29781136839649
"471",72300,99999,"BEAUCOUZE","FR","","LFRA",47.483,-0.6,50,19360616,20170502,"FRANCE",47.5,-0.6,1.89243134348638
"472",72350,99999,"ARNAGE","FR","","LFRM",47.949,0.202,59.1,19730103,20170502,"FRANCE",47.9,0.2,5.4566949779658
"473",72400,99999,"VAL DE LOIRE","FR","","LFOT",47.432,0.728,108.8,19310101,20170502,"FRANCE",47.4,0.7,4.13979821660493
"474",72450,99999,"LE BREUIL","FR","","LFOQ",47.678,1.209,121.3,20010919,20170502,"FRANCE",47.7,1.2,2.54019295347646
"475",72470,99999,"ROMORANTIN/PRUNIERS","FR","","LFYR",47.317,1.683,86,19360701,20170502,"FRANCE",47.3,1.7,2.28643978405884
"476",72490,99999,"BRICY","FR","","LFOJ",47.988,1.761,125.6,19360102,20170502,"FRANCE",48,1.8,3.19772767103262
"477",72550,99999,"BOURGES","FR","","LFLD",47.058,2.37,161.2,19730101,20170502,"FRANCE",47.1,2.4,5.19919432141291
"478",72553,99999,"TAVAUX","FR","","LFGJ",47.039,5.427,196.6,19980201,20170502,"FRANCE",47,5.4,4.80073123023922
"479",72554,99999,"AVORD","FR","","LFOA",47.053,2.633,176.8,19980201,20170502,"FRANCE",47.1,2.6,5.79937917001365
"480",72600,99999,"FOURCHAMBAULT","FR","","LFQG",47.003,3.113,183.5,19730102,20170502,"FRANCE",47,3.1,1.04190026798974
"481",72660,99999,"BRANCHES","FR","","LFLA",47.85,3.497,159.4,20130101,20170502,"FRANCE",47.8,3.5,5.57048890469602
"482",72760,99999,"CHATILLON-SUR-SEINE","FR","","LFQH",47.85,4.55,264,19730101,20030324,"FRANCE",47.9,4.6,6.70210321754295
"483",72800,99999,"LONGVIC","FR","","LFSD",47.269,5.09,221.3,19310101,20170502,"FRANCE",47.3,5.1,3.53256055578623
"484",72880,99999,"BESANCON/THISE(AUT)","FR","","LFSA",47.25,5.983,309,19730101,20170502,"FRANCE",47.3,6,5.71215107374409
"485",72920,99999,"SAINT SAUVEUR","FR","","LFSX",47.783,6.364,278.3,19410301,20170502,"FRANCE",47.8,6.4,3.29091293781199
"486",72950,99999,"BELFORT/FONTAINE","FR","","LFSQ",47.633,6.867,423,19730103,20090915,"FRANCE",47.6,6.9,4.4302334808264
"487",72955,99999,"LURE/MALBOUHANS AFB","FR","","LFYL",47.7,6.55,317,19810309,19840328,"FRANCE",47.7,6.6,3.74597045004579
"488",72990,99999,"BALE MULHOUSE","FR","","LFSB",47.59,7.53,269.7,19730101,20170502,"FRANCE",47.6,7.5,2.5122062833256
"489",73060,99999,"LES AJONCS","FR","","LFRI",46.702,-1.379,91.1,19830405,20170502,"FRANCE",46.7,-1.4,1.6185994065511
"490",73151,99999,"LA ROCHELLE/LALEU","FR","","LFBH",46.183,-1.183,22,19761201,19790310,"FRANCE",46.2,-1.2,2.30162785741416
"491",73170,99999,"BISCAROSSE / PARENTIS","FR","","LFWC",44.433,-1.25,39,20040803,20170502,"FRANCE",44.4,-1.3,5.41298742308219
"492",73175,99999,"BRAY","FR","","LFAQ",49.972,2.698,110.9,20070822,20170502,"FRANCE",50,2.7,3.12023124745134
"493",73300,99999,"SOUCHE","FR","","LFBN",46.311,-0.402,61.9,19860101,20170502,"FRANCE",46.3,-0.4,1.23413554289074
"494",73350,99999,"BIARD","FR","","LFBI",46.588,0.307,128.9,19360615,20170502,"FRANCE",46.6,0.3,1.43915694176338
"495",73540,34048,"CHATEAURROUX DEOLS","FR","","LFLX",46.867,1.717,157,19360102,20170502,"FRANCE",46.9,1.7,3.89460183451933
"496",73625,99999,"MONTLUCON GUERET","FR","","LFBK",46.225,2.363,416.7,19840910,20080407,"FRANCE",46.2,2.4,3.98352353872012
"497",73740,99999,"CHARMEIL","FR","","LFLV",46.17,3.404,249,19730101,20170502,"FRANCE",46.2,3.4,3.35378335891169
"498",73790,99999,"SAINT YAN","FR","","LFLN",46.413,4.013,242.6,19730103,20170502,"FRANCE",46.4,4,1.75783678192875
"499",73850,99999,"CHARNAY","FR","","LFLM",46.295,4.796,221.9,19730101,20170502,"FRANCE",46.3,4.8,0.635962643856073
"500",73865,99999,"CHAMPFORGEUIL","FR","","LFLH",46.826,4.818,189.9,19840911,19850810,"FRANCE",46.8,4.8,3.20274233974739
"501",73901,99999,"MARCE","FR","","LFJR",47.56,-0.312,59.1,20040510,20170502,"FRANCE",47.6,-0.3,4.54304171019677
"502",74120,99999,"CHATEAUBERNARD","FR","","LFBG",45.658,-0.318,31.1,19730101,20170502,"FRANCE",45.7,-0.3,4.88051953021742
"503",74200,99999,"CHAMPNIERS","FR","","LFBU",45.717,0.217,133,19310402,20170502,"FRANCE",45.7,0.2,2.30817329370214
"504",74280,99999,"BASSILLAC","FR","","LFBX",45.198,0.816,100,19730101,20170502,"FRANCE",45.2,0.8,1.27464883772799
"505",74340,99999,"BELLEGARDE","FR","","LFBL",45.863,1.179,396.2,19730101,20170502,"FRANCE",45.9,1.2,4.42866405752565
"506",74380,99999,"LA ROCHE","FR","","LFBV",45.151,1.469,115.5,19871001,20170502,"FRANCE",45.2,1.5,5.97253323567267
"507",74600,99999,"AUVERGNE","FR","","LFLC",45.787,3.169,332.2,19310102,20170502,"FRANCE",45.8,3.2,2.80779582480621
"508",74710,99999,"LOUDES","FR","","LFHP",45.081,3.763,832.4,19831201,20170502,"FRANCE",45.1,3.8,3.59570157592408
"509",74750,99999,"BOUTHEON","FR","","LFMH",45.541,4.296,403.9,19730101,20170502,"FRANCE",45.5,4.3,4.57474982052631
"510",74760,99999,"CAUMONT","FR","","LFMV",43.907,4.902,37.8,20040831,20170502,"FRANCE",43.9,4.9,0.795576432784551
"511",74765,99999,"CORMEILLES EN VEXIN","FR","","LFPT",49.097,2.041,99.1,20081022,20170502,"FRANCE",49.1,2,3.00699459563722
"512",74800,99999,"BRON","FR","","LFLY",45.727,4.944,200.9,19730101,20170502,"FRANCE",45.7,4.9,4.55308085234573
"513",74810,99999,"SAINT EXUPERY","FR","","LFLL",45.726,5.091,250.2,19310103,20170502,"FRANCE",45.7,5.1,2.97764993526614
"514",74820,99999,"AMBERIEU","FR","","LFXA",45.987,5.328,250.9,19801029,20170502,"FRANCE",46,5.3,2.60451516248815
"515",74860,99999,"SAINT GEOIRS","FR","","LFLS",45.363,5.329,396.8,19730101,20170502,"FRANCE",45.4,5.3,4.70171724678721
"516",74900,99999,"MEYTHET","FR","","LFLP",45.929,6.099,463.6,20100611,20170502,"FRANCE",45.9,6.1,3.22919412122826
"517",74910,99999,"AIX LES BAINS","FR","","LFLB",45.638,5.88,237.4,19730101,20170502,"FRANCE",45.6,5.9,4.50765439693729
"518",75020,99999,"CAZAUX","FR","","LFBC",44.533,-1.125,25.6,19360706,20170502,"FRANCE",44.5,-1.1,4.17525840597552
"519",75030,99999,"BISCAROSSE/PARENTIS","FR","","LFBS",44.433,-1.25,39,19740301,20170502,"FRANCE",44.4,-1.3,5.41298742308219
"520",75100,99999,"MERIGNAC","FR","","LFBD",44.828,-0.716,49.4,19310101,20170502,"FRANCE",44.8,-0.7,3.36330622189159
"521",75240,99999,"LA GARENNE","FR","","LFBA",44.175,0.591,62.2,19730101,20170502,"FRANCE",44.2,0.6,2.87421770566577
"522",75300,99999,"ROUMANIERE","FR","","LFBE",44.825,0.519,52.1,19880502,20170502,"FRANCE",44.8,0.5,3.16171135556048
"523",75400,99999,"MONTAUBAN","FR","","LFDB",44.026,1.378,107,20010919,20170502,"FRANCE",44,1.4,3.38809407964109
"524",75490,99999,"AURILLAC","FR","","LFLW",44.891,2.422,638.9,19790215,20170502,"FRANCE",44.9,2.4,2.00338823140913
"525",75520,99999,"MARCILLAC","FR","","LFCR",44.408,2.483,582.2,19740318,20170502,"FRANCE",44.4,2.5,1.61894674833669
"526",75550,99999,"CASSAGNES BEGONHES","FR","","LFIG",44.178,2.515,616.9,19830601,20081230,"FRANCE",44.2,2.5,2.72604218208988
"527",75615,99999,"BRENOUX","FR","","LFNB",44.502,3.533,1024.7,19770501,20090205,"FRANCE",44.5,3.5,2.62955352545956
"528",75770,99999,"MONTELIMAR/ANCONE","FR","","LFLQ",44.583,4.733,74,19310401,20170502,"FRANCE",44.6,4.7,3.22877174325219
"529",75790,99999,"CARITAT","FR","","LFMO",44.14,4.867,60,19730101,20170502,"FRANCE",44.1,4.9,5.17512701054124
"530",75795,99999,"CHABEUIL","FR","","LFLU",44.922,4.97,160,20140901,20170502,"FRANCE",44.9,5,3.4046261048823
"531",75880,99999,"ST-AUBAN-SUR-DURANC","FR","","LFMX",44.067,6,461,19730101,20170502,"FRANCE",44.1,6,3.67354319617837
"532",76020,99999,"ANGLET","FR","","LFBZ",43.468,-1.523,74.7,19290801,20170502,"FRANCE",43.5,-1.5,4.01752389576355
"533",76030,99999,"DAX SEYRESSE","FR","","LFBY",43.683,-1.067,33,19730101,20170502,"FRANCE",43.7,-1.1,3.26141699061551
"534",76070,99999,"MONT DE MARSAN","FR","","LFBM",43.912,-0.508,61.9,19310401,20170502,"FRANCE",43.9,-0.5,1.4819367743227
"535",76100,99999,"PAU PYRENEES","FR","","LFBP",43.38,-0.419,187.8,19360615,20170502,"FRANCE",43.4,-0.4,2.70540416284281
"536",76210,99999,"LOURDES","FR","","LFBT",43.179,-0.006,384,19730101,20170502,"FRANCE",43.2,0,2.38789211279923
"537",76220,99999,"LAMOTHE","FR","","LFDH",43.688,0.602,125.3,19841201,20170502,"FRANCE",43.7,0.6,1.34549831007635
"538",76270,99999,"ANTICHAN","FR","","LFCG",43.008,1.103,417,19730101,20170502,"FRANCE",43,1.1,0.923437128413691
"539",76293,99999,"LHERM","FR","","LFBR",43.449,1.263,189.6,20100611,20170502,"FRANCE",43.4,1.3,6.22108170323685
"540",76300,99999,"BLAGNAC","FR","","LFBO",43.629,1.364,152.1,19730101,20170502,"FRANCE",43.6,1.4,4.34049953505631
"541",76304,99999,"SAINT CHRISTOL","FR","","LFXI",44.05,5.5,834,19980202,19990528,"FRANCE",44.1,5.5,5.56597453966475
"542",76310,99999,"FRANCAZAL","FR","","LFBF",43.546,1.368,163.1,19310101,20170502,"FRANCE",43.5,1.4,5.7352611813501
"543",76320,99999,"LE SEQUESTRE","FR","","LFCI",43.914,2.113,171.9,19890101,20170502,"FRANCE",43.9,2.1,1.87507475500799
"544",76350,99999,"SALVAZA","FR","","LFMK",43.216,2.306,132,19730101,20170502,"FRANCE",43.2,2.3,1.84644512964818
"545",76415,99999,"VIAS","FR","","LFMU",43.324,3.354,17.1,19750717,20170502,"FRANCE",43.3,3.4,4.58482760228549
"546",76430,99999,"MEDITERRANEE","FR","","LFMT",43.576,3.963,5.2,19730101,20170502,"FRANCE",43.6,4,4.00475483706498
"547",76450,99999,"NIMES/COURBESSAC","FR","","LFME",43.867,4.4,62,19360615,20170502,"FRANCE",43.9,4.4,3.67354319617837
"548",76460,99999,"GARONS","FR","","LFTW",43.757,4.416,94.2,19730101,20170502,"FRANCE",43.8,4.4,4.95647584082616
"549",76470,99999,"LE TUBE","FR","","LFMI",43.523,4.924,25,19360702,20170502,"FRANCE",43.5,4.9,3.21086262957031
"550",76480,99999,"SALON","FR","","LFMY",43.606,5.109,59.4,19730202,20170502,"FRANCE",43.6,5.1,0.986130979729597
"551",76490,99999,"AIX LES MILLES","FR","","LFMA",43.506,5.368,111.9,19760401,20050605,"FRANCE",43.5,5.4,2.66874974923295
"552",76500,99999,"PROVENCE","FR","","LFML",43.436,5.214,22.6,19310101,20170502,"FRANCE",43.5,5.2,7.21367324257315
"553",76670,99999,"LE PALYVESTRE","FR","","LFTH",43.097,6.146,2.1,19730101,20170502,"FRANCE",43.1,6.1,3.75391545302436
"554",76750,99999,"LE CANNET","FR","","LFMC",43.385,6.387,80.8,19760309,20170502,"FRANCE",43.4,6.4,1.97333698125351
"555",76840,99999,"MANDELIEU","FR","","LFMD",43.542,6.953,4,19810203,20170502,"FRANCE",43.5,6.9,6.33737216522177
"556",76900,99999,"COTE D AZUR","FR","","LFMN",43.658,7.216,3.7,19451001,20170502,"FRANCE",43.7,7.2,4.84962204802139
"557",77385,99999,"LA MONTAGNE-NOIRE","FR","","LFMG",43.383,1.983,450,19730201,19820416,"FRANCE",43.4,2,2.33932290790143
"558",77470,99999,"RIVESALTES","FR","","LFMP",42.74,2.871,43.9,19290801,20170502,"FRANCE",42.7,2.9,5.0450343871045
"559",77540,99999,"SAINT CATHERINE","FR","","LFKC",42.531,8.793,63.7,19730101,20170502,"FRANCE",42.5,8.8,3.49837702804726
"560",77610,99999,"CAMPO DELL ORO","FR","","LFKJ",41.924,8.803,5.5,19360616,20170502,"FRANCE",41.9,8.8,2.68320184051644
"561",77650,99999,"SOLENZARA","FR","","LFKS",41.924,9.406,8.5,19730101,20170502,"FRANCE",42,9.4,8.4748466691759
"562",77800,99999,"SUD CORSE","FR","","LFKF",41.501,9.098,26.5,19800401,20170502,"FRANCE",41.5,9.1,0.200489587337924
"563",77900,99999,"PORETTA","FR","","LFKB",42.553,9.484,7.9,19450518,20170502,"FRANCE",42.5,9.5,6.04418495456986
"564",80001,99999,"MADEIRA","PO","","LPMA",32.698,-16.774,58.5,20040510,20170502,"",32.7,-16.8,2.44577213787472
"565",80020,99999,"A CORUNA","SP","","LECO",43.302,-8.377,98.5,19741001,20170502,"",43.3,-8.4,1.87657495636625
"566",80110,99999,"ASTURIAS","SP","","LEAS",43.564,-6.035,126.8,19730101,20170502,"",43.5,-6,7.66398295265515
"567",80141,99999,"CIUDAD REAL","SP","","LEAO",38.983,-3.917,629,20040510,20170502,"",39,-3.9,2.39682308373812
"568",80142,99999,"BARDENAS REALES","SP","","LEBR",42.2,-1.45,295,20040510,20160928,"",42.2,-1.5,4.12329946276341
"569",80143,99999,"VALENCIA","SP","","LEBT",39.583,-0.45,50,20040510,20170502,"",39.6,-0.5,4.68811151801547
"570",80144,99999,"ARMILLA","SP","","LEGA",37.133,-3.636,700.1,20040525,20170502,"",37.1,-3.6,4.86897553995986
"571",80210,99999,"SANTANDER","SP","","LEXJ",43.427,-3.82,4.9,19730101,20170502,"",43.4,-3.8,3.41311836961394
"572",80250,99999,"BILBAO","SP","","LEBB",43.301,-2.911,42.1,19730101,20170502,"",43.3,-2.9,0.898086723801824
"573",80290,99999,"SAN SEBASTIAN","SP","","LESO",43.357,-1.791,4.6,19730101,20170502,"",43.3,-1.8,6.38692769863783
"574",80420,99999,"SANTIAGO","SP","","LEST",42.896,-8.415,369.7,19730101,20170502,"",42.9,-8.4,1.30175819537506
"575",80450,99999,"VIGO","SP","","LEVX",42.232,-8.627,260.6,19730101,20170502,"",42.2,-8.6,4.20054672074494
"576",80550,99999,"LEON","SP","","LELN",42.589,-5.656,916.2,19730101,20170502,"",42.6,-5.7,3.80801395637165
"577",80750,99999,"BURGOS","SP","","LEBG",42.358,-3.621,897.6,19730101,20170502,"",42.4,-3.6,4.98413724816095
"578",80800,99999,"VITORIA","SP","","LEVT",42.883,-2.724,512.7,19730101,20170502,"",42.9,-2.7,2.72261580191454
"579",80840,99999,"LOGRONO/AGONCILLO","SP","","LELO",42.45,-2.333,363,19730101,20170502,"",42.5,-2.3,6.19043424669179
"580",80850,99999,"PAMPLONA","SP","","LEPP",42.77,-1.646,458.4,19730313,20170502,"",42.8,-1.6,5.0275521907879
"581",80940,99999,"HUESCA-PIRINEOS","SP","","LEHC",42.083,-0.333,554,19730102,20170502,"",42.1,-0.3,3.31852692513161
"582",81400,99999,"VALLADOLID","SP","","LEVD",41.706,-4.852,845.8,19730101,20170502,"",41.7,-4.9,4.04487870975732
"583",81600,99999,"ZARAGOZA AB","SP","","LEZG",41.666,-1.042,263,19730101,20170502,"",41.7,-1,5.14952744810341
"584",81605,99999,"ZARAGOZA (USAFB)","SP","","LEZA",41.667,-1.05,263,19570701,20010108,"",41.7,-1,5.54744956122864
"585",81750,99999,"REUS","SP","","LERS",41.147,1.167,71.3,19730101,20170502,"",41.1,1.2,5.91875846206958
"586",81763,99999,"SABADELL","SP","","LELL",41.517,2.1,250,20000830,20170502,"",41.5,2.1,1.89243134348567
"587",81810,99999,"BARCELONA","SP","","LEBL",41.297,2.078,3.7,19730101,20170502,"",41.3,2.1,1.86997228881416
"588",81840,99999,"GIRONA","SP","","LEGE",41.901,2.761,142.6,19731129,20170502,"",41.9,2.8,3.23329046733046
"589",82020,99999,"SALAMANCA","SP","","LESA",40.952,-5.502,791,19730101,20170502,"",41,-5.5,5.3459787478873
"590",82190,99999,"MADRI-COLMENAR","SP","","LECV",40.65,-3.733,NA,19970506,20170502,"",40.7,-3.7,6.22433418984194
"591",82210,99999,"BARAJAS","SP","","LEMD",40.494,-3.567,609.6,19310102,20170502,"",40.5,-3.6,2.87224753303156
"592",82211,99999,"MADRID WEATHER CENTER","SP","","LEMM",40.483,-3.583,633,20041209,20140319,"",40.5,-3.6,2.37751726909845
"593",82230,99999,"CUATRO VIENTOS","SP","","LEVS",40.371,-3.785,691,19730719,20170502,"",40.4,-3.8,3.46978197682325
"594",82240,99999,"GETAFE","SP","","LEGT",40.294,-3.724,618.4,19730101,20170502,"",40.3,-3.7,2.14436023571485
"595",82270,99999,"TORREJON","SP","","LETO",40.497,-3.446,617.5,19571001,20170502,"",40.5,-3.4,3.90818991629497
"596",82330,99999,"CALAMOCHA","SP","","LECH",40.933,-1.3,889,19730101,20170502,"",40.9,-1.3,3.67354319617837
"597",82800,99999,"ALBACETE","SP","","LEAB",38.949,-1.864,701.6,19730101,20170502,"",38.9,-1.9,6.28279612952618
"598",82840,99999,"VALENCIA","SP","","LEVC",39.489,-0.482,68.6,19730101,20170502,"",39.5,-0.5,1.97240290761769
"599",83060,99999,"PALMA DE MALLORCA","SP","","LEPA",39.55,2.733,8,19730101,20170502,"",39.6,2.7,6.24481081541829
"600",83140,99999,"MENORCA","SP","","LEMH",39.863,4.219,90.8,19310103,20170502,"",39.9,4.2,4.42707200066578
"601",83300,99999,"TALAVERA LA REAL","SP","","LEBZ",38.891,-6.821,185.6,19730101,20170502,"",38.9,-6.8,2.07702890274031
"602",83350,99999,"HINOJOSA DEL DUQUE","SP","","LEHI",38.517,-5.117,540,19730101,20050501,"",38.5,-5.1,2.40296380217793
"603",83480,99999,"CIUDAD REAL","SP","","LERL",38.983,-3.917,629,19730101,20170502,"",39,-3.9,2.39682308373812
"604",83600,99999,"ALICANTE","SP","","LEAL",38.282,-0.558,43.3,19730101,20170502,"",38.3,-0.6,4.18103787798607
"605",83730,99999,"IBIZA","SP","","LEIB",38.873,1.373,6.1,19730101,20170502,"",38.9,1.4,3.80884439079621
"606",83905,99999,"SEVILLA HELIPORT","SP","","LEEC",37.317,-6,5,20070629,20170502,"",37.3,-6,1.89243134348638
"607",83910,99999,"SEVILLA","SP","","LEZL",37.418,-5.893,33.8,19730101,20170502,"",37.4,-5.9,2.09717236552253
"608",83970,99999,"MORON AB","SP","","LEMO",37.175,-5.616,86.9,19580102,20170502,"",37.2,-5.6,3.12384690699206
"609",84100,99999,"CORDOBA","SP","","LEBA",37.842,-4.849,90.5,19730101,20170502,"",37.8,-4.8,6.35808708817901
"610",84190,99999,"GRANADA","SP","","LEGR",37.189,-3.777,566.9,19730101,20170502,"",37.2,-3.8,2.37890089512824
"611",84290,99999,"ALCANTARILLA","SP","","LERI",37.951,-1.23,76.2,19730101,20170502,"",38,-1.2,6.05667869282995
"612",84330,99999,"MURCIA SAN JAVIER","SP","","LELC",37.775,-0.812,3.4,19730101,20170502,"",37.8,-0.8,2.97649270853765
"613",84490,13025,"ROTA NAVAL AIR STATION","SP","","LERT",36.65,-6.35,25.6,19730101,20170502,"",36.7,-6.4,7.13501091544451
"614",84510,99999,"JEREZ","SP","","LEJR",36.745,-6.06,28.3,19730101,20170502,"",36.7,-6.1,6.1507905511608
"615",84515,99999,"LLEIDA-ALGUAIRE AIRPORT","SP","","LEDA",41.728,0.536,350,20100114,20170430,"",41.7,0.5,4.32023562315503
"616",84820,99999,"MALAGA","SP","","LEMG",36.675,-4.499,15.8,19730101,20170502,"",36.7,-4.5,2.78441858889347
"617",84870,99999,"ALMERIA","SP","","LEAM",36.844,-2.37,21.3,19310102,20170502,"",36.9,-2.4,6.78224279347283
"618",84950,99999,"GIBRALTAR","GI","","LXGB",36.151,-5.35,4.6,19580101,20170502,"",36.2,-5.4,7.06679845228762
"619",85010,99999,"FLORES","PO","","LPFL",39.455,-31.131,34.1,19781201,20170502,"PORTUGAL",39.5,-31.2,7.76173533591854
"620",85050,99999,"HORTA","PO","","LPHR",38.52,-28.716,36,19760201,20170502,"PORTUGAL",38.6,-28.7,9.0138082777064
"621",85090,99999,"LAJES","PO","","LPLA",38.762,-27.091,54.9,19470101,20170502,"PORTUGAL",38.8,-27.1,4.30163490525679
"622",85120,99999,"PONTA DELGADA","PO","","LPPD",37.741,-25.698,78.9,19310103,20170502,"PORTUGAL",37.8,-25.7,6.57020740663768
"623",85125,99999,"PICO","PO","","LPPI",38.554,-28.441,33.2,20050628,20160304,"PORTUGAL",38.5,-28.4,6.99171410142465
"624",85210,99999,"FUNCHAL/S.CATARINA","PO","","LPFU",32.683,-16.767,58,19480111,20170502,"PORTUGAL",32.7,-16.8,3.62483296924095
"625",85240,99999,"PORTO SANTO","PO","","LPPS",33.073,-16.35,103.9,19480113,20170502,"PORTUGAL",33.1,-16.4,5.54810178981589
"626",85320,99999,"SINTRA","PO","","LPST",38.831,-9.34,134.1,19901001,20170502,"PORTUGAL",38.8,-9.3,4.89345769579741
"627",85340,99999,"MONTIJO","PO","","LPMT",38.704,-9.036,14,19830503,20170502,"PORTUGAL",38.7,-9,3.15902799225123
"628",85360,99999,"LISBOA","PO","","LPPT",38.781,-9.136,114,19310103,20170502,"PORTUGAL",38.8,-9.1,3.77233213047245
"629",85370,99999,"ALVERCA","PO","","LPAR",38.883,-9.03,3.4,19990104,20170502,"PORTUGAL",38.9,-9,3.21523883071023
"630",85400,99999,"MONTE REAL","PO","","LPMR",39.831,-8.887,57,19901006,20170502,"PORTUGAL",39.8,-8.9,3.62551173746453
"631",85450,99999,"PORTO","PO","","LPPR",41.248,-8.681,69.5,19310103,20170502,"PORTUGAL",41.2,-8.7,5.57512009622126
"632",85520,99999,"TANCOS","PO","","LPTN",39.475,-8.365,81.1,19901006,20090831,"PORTUGAL",39.5,-8.4,4.09715132169137
"633",85540,99999,"FARO","PO","","LPFR",37.014,-7.966,7.3,19480111,20170502,"PORTUGAL",37,-8,3.4005920030959
"634",85581,99999,"OVAR","PO","","LPOV",40.916,-8.646,17.1,20040525,20160725,"PORTUGAL",40.9,-8.6,4.26022021764753
"635",85620,99999,"BEJA","PO","","LPBJ",38.079,-7.932,193.9,19480808,20170502,"PORTUGAL",38.1,-7.9,3.65038207577287
"636",85670,99999,"VILA REAL","PO","","LPVR",41.274,-7.72,550.2,19920501,20170502,"PORTUGAL",41.3,-7.7,3.34301365213784
"637",85750,99999,"BRAGANCA","PO","","LPBG",41.86,-6.706,690.4,19480112,20170502,"PORTUGAL",41.9,-6.7,4.4804628894546
"638",85944,99999,"BOA VISTA RABIL","CV","","GVBA",16.137,-22.889,21,20080902,20170502,"",16.1,-22.9,4.28352114014096
"639",85945,99999,"SAO PEDRO","CV","","GVSV",16.834,-25.057,20.1,20071004,20170502,"",16.8,-25,7.15659380606277
"640",85950,99999,"FRANCISCO MENDES","CV","","GVFM",14.924,-23.494,230,20041002,20120318,"",15,-23.5,8.48485335819767
"641",91800,99999,"BARTH","GM","","ETBH",54.333,12.717,7,19791106,19911031,"GERMANY",54.3,12.7,3.83581103367578
"642",91810,99999,"PAROW","GM","","ETPA",54.367,13.083,4,19910506,19911009,"GERMANY",54.4,13,6.51512318319303
"643",92810,99999,"NEUBRANDENBURG/TROL","GM","","ETNB",53.6,13.317,71,19910421,19911027,"GERMANY",53.6,13.3,1.12300449815641
"644",93610,99999,"MAGDEBURG         &","GM","","ETMG",52.1,11.583,79,19750701,19920516,"GERMANY",52.1,11.6,1.16249256385153
"645",93950,99999,"NEUHARDENBERG/WRIEZ","GM","","ETWN",52.617,14.233,10,19910511,19910912,"GERMANY",52.6,14.2,2.92535690899338
"646",94920,99999,"COTTBUS","GM","","ETCB",51.767,14.3,68,19750701,19911003,"GERMANY",51.8,14.3,3.67354319617695
"647",94930,99999,"PRESCHEN","GM","","ETPR",51.667,14.633,100,19910411,19911029,"GERMANY",51.7,14.6,4.32231992725006
"648",94960,99999,"COTTBUS","GM","","ETCO",51.783,14.333,69,19830201,19911031,"GERMANY",51.8,14.3,2.95704072975711
"649",100001,99999,"NIEDERRHEIN","GM","","EDLV",51.602,6.142,32.3,20050101,20170502,"GERMANY",51.6,6.1,2.91258367184771
"650",100330,99999,"MEIERWIK","GM","","ETGG",54.833,9.5,33,19360101,20170502,"GERMANY",54.8,9.5,3.67354319617766
"651",100340,99999,"EGGEBEK","GM","","ETME",54.625,9.346,20,19730101,20050629,"GERMANY",54.6,9.3,4.06677853499217
"652",100370,99999,"SCHLESWIG","GM","","ETNS",54.459,9.516,21.3,19420101,20170502,"GERMANY",54.5,9.5,4.67994059082263
"653",100380,99999,"HOHN","GM","","ETNH",54.312,9.538,11.9,19730101,20170502,"GERMANY",54.3,9.5,2.80641722371026
"654",100460,99999,"KIEL/HOLTENAU(GNVY)","GM","","ETMK",54.383,10.15,31,19290801,20030816,"GERMANY",54.4,10.1,3.75283564824835
"655",100465,99999,"KIEL HOLTENAU","GM","","EDHK",54.38,10.145,30.8,19950827,20170502,"GERMANY",54.4,10.1,3.66939252346363
"656",101220,99999,"JEVER","GM","","ETNJ",53.534,7.889,7.3,19370105,20130926,"GERMANY",53.5,7.9,3.85425499181524
"657",101260,99999,"WITTMUNDHAFEN","GM","","ETNT",53.548,7.667,7.9,19730101,20170502,"GERMANY",53.5,7.7,5.77239304134586
"658",101280,99999,"SENGWARDEN","GM","","EDZE",53.583,8.033,1,19730101,19830704,"GERMANY",53.6,8,2.88710759557129
"659",101360,99999,"NORDHOLZ","GM","","ETMN",53.768,8.659,22.6,19460901,20170502,"GERMANY",53.8,8.7,4.46779008788227
"660",101420,99999,"ITZEHOE","GM","","ETHI",53.983,9.567,26,19730102,20121231,"GERMANY",54,9.6,2.87151184093991
"661",101430,99999,"NEUMUNSTER/WASBEK","GM","","EDHN",54.083,9.983,25,19420101,19921231,"GERMANY",54.1,10,2.19389318358327
"662",101470,99999,"HAMBURG","GM","","EDDH",53.63,9.988,16.2,19280401,20170502,"GERMANY",53.6,10,3.43231225931335
"663",101490,99999,"HAMBURG FINKENWERDER","GM","","EDHI",53.536,9.837,6.7,19881028,20170502,"GERMANY",53.5,9.8,4.69652195751972
"664",101560,99999,"LUBECK BLANKENSEE","GM","","EDHL",53.805,10.719,16.2,19730101,20170502,"GERMANY",53.8,10.7,1.36749648752278
"665",101624,99999,"SCHWERIN PARCHIM","GM","","EDOP",53.427,11.783,50.6,19990115,20170502,"GERMANY",53.4,11.8,3.21030764633339
"666",101720,99999,"LAAGE","GM","","ETNL",53.918,12.278,42.1,19911218,20170502,"GERMANY",53.9,12.3,2.46905863241259
"667",101780,99999,"TUTOW","GM","","EDUW",53.922,13.219,7,19350101,19400324,"GERMANY",53.9,13.2,2.74771142134339
"668",101935,99999,"HERINGSDORF","GM","","EDAH",53.879,14.152,28.3,19950315,20170502,"GERMANY",53.9,14.2,3.92192478378623
"669",102000,99999,"EMDEN","GM","","EDWE",53.391,7.227,0.6,19830506,20130528,"GERMANY",53.4,7.2,2.05324181250875
"670",102240,99999,"BREMEN","GM","","EDDW",53.048,8.787,4.3,19290801,20170502,"GERMANY",53,8.8,5.41376862612032
"671",102244,99999,"LEMWERDER","GM","","EDWD",53.15,8.617,30,19920827,19970226,"GERMANY",53.2,8.6,5.68037369164257
"672",102340,99999,"ROTENBURG","GM","","ETGQ",53.133,9.35,61,19420101,20161010,"GERMANY",53.1,9.4,4.96536045839888
"673",102380,99999,"BERGEN (MIL)","GM","","ETGB",52.817,9.933,69,19730102,20140406,"GERMANY",52.8,9.9,2.91758496398134
"674",102460,99999,"FASSBERG","GM","","ETHS",52.919,10.198,74.7,19360102,20170502,"GERMANY",52.9,10.2,2.11932782262751
"675",102720,99999,"WITTSTOCK","GM","","ETGW",53.2,12.517,74,19950403,20140309,"GERMANY",53.2,12.5,1.13361103065236
"676",102810,99999,"NEUBRANDENBURG","GM","","ETNU",53.602,13.306,69.5,19920630,20130930,"GERMANY",53.6,13.3,0.454596074827635
"677",103040,99999,"MEPPEN (MIL)","GM","","ETWM",52.717,7.317,26,19761201,20170502,"GERMANY",52.7,7.3,2.21267140297471
"678",103060,99999,"RHEINE BENTLAGE","GM","","ETHE",52.291,7.387,39.3,19401001,20170502,"GERMANY",52.3,7.4,1.33682140689911
"679",103080,99999,"NORDHORN RANGE","GM","","ETUN",52.45,7.167,26,19310102,20040915,"GERMANY",52.5,7.2,5.99890386271871
"680",103130,99999,"MUNSTER/TELGTE","GM","","EDLT",51.967,7.6,64,19380404,19891129,"GERMANY",52,7.6,3.67354319617837
"681",103140,99999,"HOPSTEN","GM","","ETNP",52.339,7.541,40,19730101,20051223,"GERMANY",52.3,7.5,5.16057031399846
"682",103150,99999,"MUNSTER OSNABRUCK","GM","","EDDG",52.135,7.685,48.8,19881027,20170502,"GERMANY",52.1,7.7,4.02883721155822
"683",103200,99999,"GUTERSLOH","GM","","ETUO",51.923,8.306,71.9,19370503,20131028,"GERMANY",51.9,8.3,2.59328873651209
"684",103210,99999,"DIEPHOLZ","GM","","ETND",52.586,8.341,38.7,19730102,20170502,"GERMANY",52.6,8.3,3.18056004336118
"685",103340,99999,"WUNSTORF","GM","","ETNW",52.457,9.427,57,19370507,20170502,"GERMANY",52.5,9.4,5.12483869332106
"686",103350,99999,"BUCKEBURG","GM","","ETHB",52.279,9.082,70.1,19730102,20170502,"GERMANY",52.3,9.1,2.63952155344067
"687",103380,99999,"HANNOVER","GM","","EDDV",52.461,9.685,55.8,19260101,20170502,"GERMANY",52.5,9.7,4.45897694361701
"688",103430,99999,"CELLE","GM","","ETHC",52.591,10.022,39.3,19360102,20170502,"GERMANY",52.6,10,1.79354631740294
"689",103480,99999,"BRAUNSCHWEIG WOLFSBURG","GM","","EDVE",52.319,10.556,89.9,19310102,20170502,"GERMANY",52.3,10.6,3.66626002792862
"690",103820,99999,"TEGEL","GM","","EDDT",52.56,13.288,37.2,19360310,20170502,"GERMANY",52.6,13.3,4.52616189559483
"691",103840,99999,"TEMPELHOF","GM","","EDDI",52.473,13.404,50.9,19290801,20030816,"GERMANY",52.5,13.4,3.0178323628147
"692",103850,99999,"SCHONEFELD","GM","","EDDB",52.38,13.523,47.9,19400408,20170502,"GERMANY",52.4,13.5,2.71998840214644
"693",104000,99999,"DUSSELDORF","GM","","EDDL",51.289,6.767,44.8,19310102,20170502,"GERMANY",51.3,6.8,2.60312247772023
"694",104010,99999,"BRUGGEN (RAF)","GM","","ETUR",51.2,6.133,76,19730102,20030622,"GERMANY",51.2,6.1,2.30185614861299
"695",104040,99999,"KALKAR (MIL COMM)","GM","","ETGY",51.75,6.283,43,19730102,20140122,"GERMANY",51.8,6.3,5.68780998605274
"696",104050,99999,"LAARBRUCH (RAF)","GM","","ETUL",51.6,6.15,31,19730102,20030615,"GERMANY",51.6,6.2,3.45729266302057
"697",104160,99999,"DORTMUND","GM","","EDLW",51.518,7.612,129.5,19310101,20170502,"GERMANY",51.5,7.6,2.16939234696541
"698",104260,99999,"PADERBORN LIPPSTADT","GM","","EDLP",51.614,8.616,213.1,19381104,20170502,"GERMANY",51.6,8.6,1.91113435470537
"699",104360,99999,"KASSEL CALDEN","GM","","EDVK",51.408,9.378,276.8,19881223,20170502,"GERMANY",51.4,9.4,1.76837698597373
"700",104374,99999,"MONCHENGLADBACH","GM","","EDLN",51.23,6.504,38.1,19960715,20170502,"GERMANY",51.2,6.5,3.3512122589515
"701",104390,99999,"FRITZLAR","GM","","ETHF",51.115,9.286,172.5,19380722,20170502,"GERMANY",51.1,9.3,1.93537535971555
"702",104690,99999,"LEIPZIG HALLE","GM","","EDDP",51.424,12.236,141.7,19290311,20170502,"GERMANY",51.4,12.2,3.6586228103738
"703",104760,99999,"HOLZDORF","GM","","ETSH",51.768,13.168,80.8,19911020,20170502,"GERMANY",51.8,13.2,4.1887575257237
"704",104880,99999,"DRESDEN","GM","","EDDC",51.133,13.767,230.1,19310101,20170502,"GERMANY",51.1,13.8,4.33735803032669
"705",104920,99999,"COTTBUS (FLUGPLATZ)","GM","","ETHT",51.767,14.3,67,19311102,20030613,"GERMANY",51.8,14.3,3.67354319617695
"706",105000,99999,"GEILENKIRCHEN","GM","","ETNG",50.961,6.042,90.2,19820625,20170502,"GERMANY",51,6,5.24527352899512
"707",105020,99999,"NORVENICH","GM","","ETNN",50.831,6.658,117.7,19730101,20170502,"GERMANY",50.8,6.7,4.54257419030453
"708",105030,99999,"AACHEN/MERZBRUCK","GM","","ETBA",50.817,6.183,191,19780901,20030305,"GERMANY",50.8,6.2,2.23860766448025
"709",105130,99999,"KOLN BONN","GM","","EDDK",50.866,7.143,92,19310101,20170502,"GERMANY",50.9,7.1,4.84205275798301
"710",105140,99999,"MENDIG","GM","","ETHM",50.366,7.315,182,19730102,20070614,"GERMANY",50.4,7.3,3.9317772584255
"711",105445,99999,"MELLENDORF","GM","","EDEX",50.533,9.633,305,19730102,19881027,"GERMANY",50.5,9.6,4.35328471894438
"712",105536,99999,"ALTENBURG NOBITZ","GM","","EDAC",50.982,12.506,195.1,19960321,20170425,"GERMANY",51,12.5,2.04738037690194
"713",105540,99999,"ERFURT","GM","","EDDE",50.98,10.958,315.8,19310101,20170502,"GERMANY",51,11,3.69024194197671
"714",106070,99999,"SPANGDAHLEM AB","GM","","ETAD",49.973,6.693,364.8,19530518,20170502,"GERMANY",50,6.7,3.04709933340841
"715",106074,99999,"BITBURG","GM","","EDRB",49.945,6.565,372.8,19970826,19980709,"GERMANY",49.9,6.6,5.60233797043411
"716",106130,99999,"BUCHEL","GM","","ETSB",50.174,7.063,477.9,19730101,20170502,"GERMANY",50.2,7.1,3.91559897592515
"717",106160,99999,"FRANKFURT HAHN","GM","","EDFH",49.949,7.264,502.6,19530722,20170502,"GERMANY",49.9,7.3,6.03404834172771
"718",106161,99999,"MAGDEBURG","GM","","EDBM",52.074,11.626,81.7,20040510,20070105,"GERMANY",52.1,11.6,3.39704112184602
"719",106162,99999,"SIEGERLAND","GM","","EDGS",50.708,8.083,599.2,20040510,20170502,"GERMANY",50.7,8.1,1.49317051552257
"720",106163,99999,"ZWEIBRUCKEN","GM","","EDRZ",49.21,7.401,345.3,20040510,20141128,"GERMANY",49.2,7.4,1.11556833727662
"721",106164,99999,"COCHSTEDT","GM","","EDBC",51.855,11.419,180,20100716,20161020,"GERMANY",51.9,11.4,5.17675412906976
"722",106180,99999,"IDAR-OBERSTEIN(MIL)","GM","","ETGI",49.7,7.333,377,19730102,20131216,"GERMANY",49.7,7.3,2.37601017477559
"723",106260,99999,"PFERDSFELD (GER-AF)","GM","","ETSP",49.85,7.6,396,19730101,20010421,"GERMANY",49.8,7.6,5.56597453966404
"724",106270,99999,"BAD KREUZNACH AAF","GM","","ETEH",49.85,7.883,103,19591104,20010223,"GERMANY",49.9,7.9,5.69802377042143
"725",106320,99999,"FINTHEN (USA-AF)","GM","","EDOT",49.967,8.15,232,19420101,19921009,"GERMANY",50,8.1,5.1287350796904
"726",106325,99999,"EGELSBACH","GM","","EDFE",49.961,8.642,117.3,20070807,20170403,"GERMANY",50,8.6,5.28085563017968
"727",106330,99999,"WIESBADEN AAF","GM","","ETOU",50.05,8.325,140.5,19380106,20170502,"GERMANY",50.1,8.3,5.84552346145185
"728",106334,99999,"MEBSTETTEN / ALBSTADT","GM","","ETCE",50.117,9.117,475,19801015,19950104,"GERMANY",50.1,9.1,2.24818263610975
"729",106370,99999,"FRANKFURT MAIN","GM","","EDDF",50.026,8.543,110.9,19260101,20170502,"GERMANY",50,8.5,4.22361615591765
"730",106405,99999,"MAURICE ROSE(USAHP)","GM","","EDEN",50.183,8.667,104,19650501,19860330,"GERMANY",50.2,8.7,3.01872148250498
"731",106420,99999,"HANAU AAF","GM","","ETID",50.169,8.962,112.2,19381104,20060428,"GERMANY",50.2,9,4.38696163251429
"732",106430,99999,"BABENHAUSEN","GM","","EDEF",49.95,8.967,131,19850509,19860330,"GERMANY",50,9,6.04662265991997
"733",106530,99999,"GIEBELSTADT AAF","GM","","ETEU",49.648,9.966,298.7,19360102,20060831,"GERMANY",49.6,10,5.8790083334298
"734",106585,99999,"SCHWEINFURT AHP","GM","","ETOA",50.047,10.171,239.9,20030423,20051104,"GERMANY",50,10.2,5.62812361947105
"735",106595,99999,"VILSECK AAF","GM","","ETOI",49.634,11.767,412.4,19810102,20130325,"GERMANY",49.6,11.8,4.47100662107045
"736",106596,99999,"HEIDELBERG AHP","GM","","ETIE",49.383,8.65,109,20060424,20091203,"GERMANY",49.4,8.6,4.0873117744204
"737",106597,99999,"LANDSTUHL AHP","GM","","ETIP",49.403,7.536,355.7,20060831,20151215,"GERMANY",49.4,7.5,2.62919490424389
"738",106598,99999,"BAUMHOLDER","GM","","EDEK",49.633,7.283,426,20060425,20170502,"GERMANY",49.6,7.3,3.87275852639437
"739",106690,99999,"KITZINGEN AAF","GM","","ETIN",49.743,10.201,210,19990424,20020117,"GERMANY",49.7,10.2,4.78727909498019
"740",106755,99999,"BAMBERG (USA-AF)","GM","","EDEJ",49.917,10.917,242,19461101,19820716,"GERMANY",49.9,10.9,2.25091884771622
"741",106770,99999,"BAYREUTH","GM","","EDQD",49.984,11.639,488,19310102,20070701,"GERMANY",50,11.6,3.31098240125916
"742",106850,99999,"HOF PLAUEN","GM","","EDQM",50.289,11.855,597.4,19310101,20170502,"GERMANY",50.3,11.9,3.42647159513224
"743",106870,99999,"GRAFENWOHR AAF","GM","","ETIC",49.699,11.94,415.4,19390901,20170502,"GERMANY",49.7,11.9,2.8821925171992
"744",107080,99999,"SAARBRUCKEN","GM","","EDDR",49.215,7.11,322.5,19350701,20170502,"GERMANY",49.2,7.1,1.82130015177356
"745",107120,99999,"SEMBACH (USAFB)","GM","","ETAS",49.5,7.867,321,19530708,20100216,"GERMANY",49.5,7.9,2.38577544014701
"746",107275,99999,"KARLSRUHE BADEN BADEN","GM","","EDSB",48.779,8.081,124.4,19970723,20170502,"GERMANY",48.8,8.1,2.7215129233863
"747",107280,99999,"COLEMAN AAF","GM","","ETOR",49.564,8.463,94.2,19310101,20130114,"GERMANY",49.6,8.5,4.81575604199106
"748",107290,99999,"MANNHEIM CITY","GM","","EDFM",49.473,8.514,94.2,19470729,20170502,"GERMANY",49.5,8.5,3.17156053114815
"749",107380,99999,"STUTTGART","GM","","EDDS",48.69,9.222,388.9,19390902,20170502,"GERMANY",48.7,9.2,1.96274082430905
"750",107430,99999,"NIEDERSTETTEN","GM","","ETHN",49.392,9.958,468.2,19730102,20170502,"GERMANY",49.4,10,3.17053108162206
"751",107450,99999,"SCHWABISCH HALL","GM","","EDTY",49.118,9.784,399.6,19360102,20170502,"GERMANY",49.1,9.8,2.31829004484468
"752",107520,99999,"ILLESHEIM AHP","GM","","ETIK",49.474,10.388,328.6,19390901,20170502,"GERMANY",49.5,10.4,3.02159935217227
"753",107550,99999,"ANSBACH AHP","GM","","ETEB",49.308,10.639,467,19390101,20170502,"GERMANY",49.3,10.6,2.96760592374917
"754",107630,99999,"NURNBERG","GM","","EDDN",49.499,11.078,318.8,19310101,20170502,"GERMANY",49.5,11.1,1.59442401743582
"755",107635,99999,"FURTH (USA-HP)","GM","","EDEW",49.5,10.967,302,19460301,19710704,"GERMANY",49.5,11,2.3857754401469
"756",107650,99999,"ROTH","GM","","ETHR",49.218,11.1,386.5,19390901,20131205,"GERMANY",49.2,11.1,2.00375083427866
"757",107655,99999,"FEUCHT AAF","GM","","EDIG",49.383,11.167,386,19730101,19790108,"GERMANY",49.4,11.2,3.04933904337069
"758",107710,99999,"KUEMMERSBRUCK","GM","","ETGK",49.433,11.9,418,19730102,20140925,"GERMANY",49.4,11.9,3.67354319617837
"759",107750,99999,"HOHENFELS AAF","GM","","ETIH",49.218,11.836,443.5,19610918,20170502,"GERMANY",49.2,11.8,3.29689314521536
"760",108050,99999,"LAHR","GM","","EDTL",48.369,7.828,155.8,19730101,20170502,"GERMANY",48.4,7.8,4.02415910940626
"761",108270,99999,"MESSSTETTEN","GM","","ETGZ",48.183,9,920,19740820,20130930,"GERMANY",48.2,9,1.89243134348638
"762",108370,99999,"LAUPHEIM","GM","","ETHL",48.22,9.91,538.3,19730102,20170502,"GERMANY",48.2,9.9,2.34672789103361
"763",108520,99999,"AUGSBURG","GM","","EDMA",48.425,10.932,461.8,19371101,20170502,"GERMANY",48.4,10.9,3.65181430916308
"764",108530,99999,"NEUBURG","GM","","ETSN",48.711,11.212,380.7,19380804,20170502,"GERMANY",48.7,11.2,1.50883297012457
"765",108560,99999,"LECHFELD","GM","","ETSL",48.186,10.861,555.3,19281114,20170502,"GERMANY",48.2,10.9,3.28706026918287
"766",108570,99999,"LANDSBERG LECH","GM","","ETSA",48.071,10.906,623,19380103,20170502,"GERMANY",48.1,10.9,3.25895308313424
"767",108580,99999,"FURSTENFELDBRUCK","GM","","ETSF",48.206,11.267,519.1,19380401,20030814,"GERMANY",48.2,11.3,2.53786099098677
"768",108600,99999,"INGOLSTADT MANCHING","GM","","ETSI",48.716,11.534,366.4,19391101,20170502,"GERMANY",48.7,11.5,3.06764698452432
"769",108644,99999,"OBERPFAFFENHOFEN","GM","","EDMO",48.081,11.283,593.4,19920831,20170502,"GERMANY",48.1,11.3,2.46401543963938
"770",108645,99999,"MUNICH/PERLACHER","GM","","EDEM",48.083,11.6,567,19731108,19860725,"GERMANY",48.1,11.6,1.89243134348638
"771",108660,99999,"MUNCHEN","GM","","EDDM",48.354,11.786,453.2,19290801,20170502,"GERMANY",48.4,11.8,5.22428255068095
"772",108670,99999,"OBERSCHLEISSHEIM","GM","","EDPO",48.233,11.55,486,19730102,19810630,"GERMANY",48.2,11.5,5.22009866477458
"773",108690,99999,"ERDING","GM","","ETSE",48.322,11.949,461.8,19370901,20150130,"GERMANY",48.3,11.9,4.37707892189386
"774",109120,99999,"DONAUESCHINGEN VILLINGEN","GM","","EDTD",47.973,8.522,680,20040406,20140430,"GERMANY",48,8.5,3.42353589653672
"775",109290,99999,"KONSTANZ","GM","","EDTZ",47.683,9.183,447,19360102,20030816,"GERMANY",47.7,9.2,2.28121866276203
"776",109350,99999,"FRIEDRICHSHAFEN","GM","","EDNY",47.671,9.511,416.7,19290801,20170502,"GERMANY",47.7,9.5,3.33185192055277
"777",109470,99999,"ALLGAU","GM","","EDJA",47.989,10.24,629.1,19370401,20170502,"GERMANY",48,10.2,3.22159828043035
"778",109540,99999,"ALTENSTADT","GM","","ETHA",47.833,10.867,760,19321122,20170502,"GERMANY",47.8,10.9,4.42493776807346
"779",109543,99999,"ALTENSTADT (GAM)  &","GM","","EDPL",47.833,10.867,739,19881027,19901029,"GERMANY",47.8,10.9,4.42493776807346
"780",109711,99999,"BAD TOLZ (USA-AF) &","GM","","EDOV",47.767,11.6,716,19640916,19861114,"GERMANY",47.8,11.6,3.67354319617766
"781",110100,99999,"LINZ","AU","","LOWL",48.233,14.188,298.1,19341001,20170502,"AUSTRIA",48.2,14.2,3.77983854718459
"782",110110,99999,"HORSCHING (AUS-AFB)","AU","","LOXL",48.233,14.183,313,19391204,20030929,"AUSTRIA",48.2,14.2,3.88393371113529
"783",110161,99999,"WIENER NEUSTADT EAST","AU","","LOAN",47.843,16.26,273.1,20040510,20170502,"AUSTRIA",47.8,16.3,5.64372911639288
"784",110162,99999,"LUGPLATZ VOSLAU","AU","","LOAV",47.967,16.267,233,20040510,20170502,"AUSTRIA",48,16.3,4.4205137738556
"785",110163,99999,"PUNITZ / GUESSING","AU","","LOGG",47.15,16.317,290,20040519,20130620,"AUSTRIA",47.2,16.3,5.71269652489222
"786",110164,99999,"OBEROSTERREICH / FREISTADT","AU","","LOLF",48.517,14.417,685,20040510,20080208,"AUSTRIA",48.5,14.4,2.27006433311992
"787",110165,99999,"WIENER NEUSTADT","AU","","LOXN",47.85,16.25,272,20040510,20170502,"AUSTRIA",47.9,16.2,6.70210321754295
"788",110300,99999,"TULLN","AU","","LOXT",48.321,16.112,175.3,19400311,20170502,"AUSTRIA",48.3,16.1,2.50084707260252
"789",110360,99999,"SCHWECHAT","AU","","LOWW",48.11,16.57,182.9,19520101,20170502,"AUSTRIA",48.1,16.6,2.49246850737559
"790",110750,99999,"LANGENOIS (AUT)","AU","","LOAG",48.467,15.7,210,19901201,20170502,"AUSTRIA",48.5,15.7,3.67354319617766
"791",111200,99999,"INNSBRUCK","AU","","LOWI",47.26,11.344,580.9,19310104,20170502,"AUSTRIA",47.3,11.3,5.55599235022483
"792",111220,99999,"SCHWAZ (HELIPORT)","AU","","LOXS",47.333,11.7,543,19760930,20020717,"AUSTRIA",47.3,11.7,3.67354319617837
"793",111290,99999,"PASSO DEL BRENNERO","IT","","LIVB",47,11.5,NA,19870519,20170502,"ITALY",47,11.5,0
"794",111440,99999,"ZELL AM SEE (AUT)","AU","","LOWZ",47.333,12.8,763,19661003,20170502,"AUSTRIA",47.3,12.8,3.67354319617837
"795",111500,99999,"SALZBURG","AU","","LOWS",47.793,13.004,430.1,19380601,20170502,"AUSTRIA",47.8,13,0.834675809658079
"796",111570,99999,"AIGEN/ENNSTAL (MIL)","AU","","LOXA",47.533,14.133,649,19380103,20170502,"AUSTRIA",47.5,14.1,4.43288024956964
"797",111650,99999,"ZELTWEG","AU","","LOXZ",47.203,14.744,676.7,19380601,20170502,"AUSTRIA",47.2,14.7,3.34456334167686
"798",111910,99999,"TRAUSDORF AIRPORT","AU","","LOAT",47.8,16.567,164,20010824,20021222,"AUSTRIA",47.8,16.6,2.46759458192245
"799",112310,99999,"KLAGENFURT(CIV/MIL)","AU","","LOWK",46.65,14.333,452,19310107,20170502,"AUSTRIA",46.7,14.3,6.1100933881736
"800",112400,99999,"GRAZ","AU","","LOWG",46.991,15.44,339.9,19340201,20170502,"AUSTRIA",47,15.4,3.19802928949295
"801",113020,99999,"DORNBIRN","AU","","LOIH",47.433,9.733,410,19951001,20170502,"AUSTRIA",47.4,9.7,4.43552625199837
"802",114140,99999,"KARLOVY VARY","EZ","","LKKV",50.203,12.915,606.2,19390101,20170502,"CZECHIA",50.2,12.9,1.11977560094706
"803",114231,99999,"CESKE BUDEJOVICE","EZ","","LKCS",48.946,14.427,443,20040510,20090328,"CZECHIA",48.9,14.4,5.48833502559108
"804",114232,99999,"KBELY","EZ","","LKKB",50.121,14.544,286.2,20040510,20170502,"CZECHIA",50.1,14.5,3.91558729949319
"805",114233,99999,"KUNOVICE","EZ","","LKKU",49.029,17.44,177.1,20040510,20170502,"CZECHIA",49,17.4,4.35323329533631
"806",114234,99999,"LIBEREC","EZ","","LKLB",50.767,15.017,398,20040510,20130102,"CZECHIA",50.8,15,3.86348522742455
"807",114480,99999,"PLZEN LINE","EZ","","LKLN",49.675,13.275,362.1,19390401,20170502,"CZECHIA",49.7,13.3,3.31462105253167
"808",115180,99999,"RUZYNE","EZ","","LKPR",50.101,14.26,380.1,19290801,20170502,"CZECHIA",50.1,14.3,2.8583725041448
"809",116240,99999,"CASLAV","EZ","","LKCV",49.94,15.382,242,19970101,20170502,"CZECHIA",49.9,15.4,4.63591164363519
"810",116520,99999,"PARDUBICE","EZ","","LKPD",50.013,15.739,225.9,19960506,20170502,"CZECHIA",50,15.7,3.14321499208916
"811",116920,99999,"NAMEST","EZ","","LKNA",49.166,16.125,471.8,19960506,20170502,"CZECHIA",49.2,16.1,4.19931657543201
"812",117230,99999,"TURANY","EZ","","LKTB",49.151,16.694,237.1,19390320,20170502,"CZECHIA",49.2,16.7,5.47210399388354
"813",117480,99999,"PREROV","EZ","","LKPO",49.426,17.405,206,19960506,20131001,"CZECHIA",49.4,17.4,2.91687246083254
"814",117740,99999,"HOLESOV","EZ","","LKHO",49.317,17.567,224,19530404,20170502,"CZECHIA",49.3,17.6,3.0525059731211
"815",117820,99999,"MOSNOV","EZ","","LKMT",49.696,18.111,257.3,19520101,20170502,"CZECHIA",49.7,18.1,0.908621748631039
"816",118010,99999,"MALACKY","LO","","LZMC",48.4,17.15,207,20031123,20170502,"",48.4,17.1,3.69539633026626
"817",118160,99999,"M R STEFANIK","LO","","LZIB",48.17,17.213,132.9,19400101,20170502,"",48.2,17.2,3.47617250476612
"818",118260,99999,"PIESTANY","LO","","LKPP",48.617,17.833,164,19370102,20170502,"",48.6,17.8,3.07913766350001
"819",119030,99999,"SLIAC","LO","","LKSL",48.65,19.15,315,19520101,20170425,"",48.7,19.1,6.66996712969224
"820",119270,99999,"LUCENEC","LO","","LZLU",48.333,19.733,214,19780608,20170502,"",48.3,19.7,4.4116872467229
"821",119271,99999,"KOSICE","LO","","LZKZ",48.663,21.241,230.1,20040510,20170502,"",48.7,21.2,5.10346804553888
"822",119272,99999,"NITRA","LO","","LZNI",48.283,18.133,134,20040510,20121231,"",48.3,18.1,3.09115041208719
"823",119273,99999,"PRIEVIDZA","LO","","LZPE",48.767,18.583,260,20040510,20121231,"",48.8,18.6,3.87940269163986
"824",119274,99999,"PIESTANY","LO","","LZPP",48.625,17.828,166.1,20040510,20170502,"",48.6,17.8,3.46291238648022
"825",119275,99999,"SLIAC","LO","","LZSL",48.638,19.134,317.9,20040510,20170502,"",48.6,19.1,4.91469814035733
"826",119276,99999,"ZILINA","LO","","LZZI",49.232,18.614,310.9,20040510,20170502,"",49.2,18.6,3.70483191188115
"827",119330,99999,"KAMENICA NAD CIROCHOU","LO","","LZKC",48.933,22,177,19780608,20170502,"",48.9,22,3.67354319617837
"828",119340,99999,"TATRY","LO","","LZTT",49.074,20.241,718.1,19570312,20170502,"",49.1,20.2,4.1607256050407
"829",119550,99999,"PRESOV","LO","","LZPW",49.033,21.317,324,20110815,20170502,"",49,21.3,3.87754255525237
"830",119680,99999,"KOSICE","LO","","LKKZ",48.667,21.217,231,19520101,20170502,"",48.7,21.2,3.8802013835717
"831",121050,99999,"KOSZALIN","PL","","EPKO",54.2,16.15,34,19520101,20170502,"POLAND",54.2,16.1,3.25585945779858
"832",121051,99999,"BABICE","PL","","EPBC",52.268,20.911,107.3,20040526,20170502,"POLAND",52.3,20.9,3.64013457869097
"833",121054,99999,"TOMASZOW","PL","","EPTM",51.533,20.017,190,20040510,20170502,"POLAND",51.5,20,3.85768771984273
"834",121056,99999,"MODLIN","PL","","EPMO",52.451,20.652,103.9,20120718,20170502,"POLAND",52.5,20.7,6.3518396682109
"835",121163,99999,"REDZIKOWO","PL","","EPSK",54.479,17.108,66.1,19901120,19920225,"POLAND",54.5,17.1,2.39425661560571
"836",121195,99999,"LUBLIN AIRPORT","PL","","EPLB",51.233,22.683,203,20130521,20170502,"POLAND",51.2,22.7,3.86005763439336
"837",121220,99999,"WICKO MORSKIE","PL","","EPWI",54.55,16.62,3,20020820,20170428,"POLAND",54.5,16.6,5.71397785773755
"838",121240,99999,"DARLOWEK","PL","","EPDA",54.4,16.35,5,20020601,20170502,"POLAND",54.4,16.4,3.24008156287696
"839",121280,99999,"ZEGRZE POMORSKIE","PL","","EPZE",54.05,16.267,72,20020601,20080923,"POLAND",54.1,16.3,5.96872327249714
"840",121330,99999,"SLUPSK/REDZIKOWO","PL","","EPSS",54.483,17.1,65,19390923,20120730,"POLAND",54.5,17.1,1.89243134348567
"841",121360,99999,"LEBUNIA","PL","","EPCE",54.417,17.767,22,20020601,20170502,"POLAND",54.4,17.8,2.85523833515669
"842",121460,99999,"PRUSZCZ GDANSKI","PL","","EPPR",54.248,18.672,6.4,20020601,20170502,"POLAND",54.2,18.7,5.64550506020499
"843",121465,99999,"PIOTRKOW TRYBUNALSKI","PL","","EPPT",51.383,19.683,205.1,20110331,20170119,"POLAND",51.4,19.7,2.23063829725459
"844",121500,99999,"LECHA WALESY","PL","","EPGD",54.378,18.466,149,19310101,20170502,"POLAND",54.4,18.5,3.29464414873144
"845",121540,99999,"MALBORK","PL","","EPMK",54.03,19.13,5,20020601,20151108,"POLAND",54,19.1,3.87340360398414
"846",121600,99999,"ELBLAG-MILEJEWO","PL","","EPEL",54.223,19.543,43,19330102,20170502,"POLAND",54.2,19.5,3.79357857173161
"847",122050,99999,"SZCZECIN","PL","","EPSD",53.4,14.617,7,19280101,20170502,"POLAND",53.4,14.6,1.12831463848325
"848",122120,99999,"SWIDWIN","PL","","EPSN",53.791,15.826,117.3,19400402,20170502,"POLAND",53.8,15.8,1.98151689216827
"849",122250,99999,"NADARZYCE","PL","","EPNA",53.45,16.5,129,19311102,20170502,"POLAND",53.4,16.5,5.56597453966404
"850",122260,99999,"MIROSLAWIEC","PL","","EPMI",53.395,16.083,139.9,19870301,20170502,"POLAND",53.4,16.1,1.25819085995415
"851",123120,99999,"BABIMOST","PL","","EPZG",52.139,15.799,59.1,20020603,20170502,"POLAND",52.1,15.8,4.34199817507916
"852",123260,99999,"KRZESINY","PL","","EPKS",52.332,16.966,80.8,20020601,20170502,"POLAND",52.3,17,4.24766859749589
"853",123300,99999,"LAWICA","PL","","EPPO",52.421,16.826,93.9,19310102,20170502,"POLAND",52.4,16.8,2.92949998528145
"854",123360,99999,"POWIDZ","PL","","EPPW",52.379,17.854,113.1,20010919,20170502,"POLAND",52.4,17.9,3.90271789036428
"855",123750,99999,"OKECIE","PL","","EPWA",52.166,20.967,110.3,19280102,20170502,"POLAND",52.2,21,4.40437258814266
"856",123760,99999,"MINSK MAZOWIECKI","PL","","EPMM",52.196,21.656,184.1,20020601,20170502,"POLAND",52.2,21.7,3.03503077745243
"857",123764,99999,"NOWA DEBA","PL","","EPND",50.433,21.767,170,20090908,20161124,"POLAND",50.4,21.8,4.35594001504701
"858",123765,99999,"MALBORK","PL","","EPMB",54.027,19.134,4.9,20050507,20170502,"POLAND",54,19.1,3.73895820984905
"859",124240,99999,"STRACHOWICE","PL","","EPWR",51.103,16.886,123.1,19390102,20170502,"POLAND",51.1,16.9,1.03404455247349
"860",124280,99999,"WROCLAW/STRACHOWICE","PL","","EPWL",51.1,16.883,123,20020601,20090815,"POLAND",51.1,16.9,1.18837697020657
"861",124540,99999,"LASK","PL","","EPLK",51.552,19.179,192.9,20020601,20170502,"POLAND",51.6,19.2,5.5373233447394
"862",124850,99999,"RADOM","PL","","EPRP",51.417,21.117,183,19391101,20140915,"POLAND",51.4,21.1,2.23040602295842
"863",124900,99999,"DEBLIN","PL","","EPDE",51.551,21.894,119.5,19340104,20170502,"POLAND",51.6,21.9,5.47042674313565
"864",125560,99999,"KRAKOW/BALICE","PL","","EPKF",50.083,19.783,241,20020601,20160404,"POLAND",50.1,19.8,2.24841521159068
"865",125600,99999,"KATOWICE","PL","","EPKM",50.233,19.033,284,19340330,20170502,"POLAND",50.2,19,4.361251039587
