"","fips","county","state","cc_lon","cc_lat","rMapState","rMapCounty","era5_lat","era5_lon","distance"
"1",1001,"Autauga County","AL",-86.645648613572,32.5400914839585,"alabama","autauga",32.5,-86.6,6.18649292640899
"2",1003,"Baldwin County","AL",-87.7262716821389,30.7383143650806,"alabama","baldwin",30.7,-87.7,4.95034283937266
"3",1005,"Barbour County","AL",-85.3973271768391,31.8740298930476,"alabama","barbour",31.9,-85.4,2.90190428839756
"4",1007,"Bibb County","AL",-87.1252604713148,32.9990235453737,"alabama","bibb",33,-87.1,2.36027471916263
"5",1009,"Blount County","AL",-86.5627114049891,33.9904400117864,"alabama","blount",34,-86.6,3.60281081195919
"6",1011,"Bullock County","AL",-85.7168036275263,32.1063355405907,"alabama","bullock",32.1,-85.7,1.73343205474151
"7",1013,"Butler County","AL",-86.6843469573658,31.7571394142614,"alabama","butler",31.8,-86.7,4.9961290772077
"8",1015,"Calhoun County","AL",-85.8295611128384,33.7762450093233,"alabama","calhoun",33.8,-85.8,3.80504292574251
"9",1017,"Chambers County","AL",-85.3948531002416,32.9163306543588,"alabama","chambers",32.9,-85.4,1.88017128073267
"10",1019,"Cherokee County","AL",-85.6042198634416,34.1914706724617,"alabama","cherokee",34.2,-85.6,1.02576985489293
"11",1021,"Chilton County","AL",-86.7156239509493,32.8516297031979,"alabama","chilton",32.9,-86.7,5.57903353946295
"12",1023,"Choctaw County","AL",-88.2595369216504,32.0204684847954,"alabama","choctaw",32,-88.3,4.4464856901276
"13",1025,"Clarke County","AL",-87.8248296534948,31.6733260010757,"alabama","clarke",31.7,-87.8,3.7887739530798
"14",1027,"Clay County","AL",-85.8517871358204,33.2734096885435,"alabama","clay",33.3,-85.9,5.37444817865591
"15",1029,"Cleburne County","AL",-85.5261016776062,33.6762193886214,"alabama","cleburne",33.7,-85.5,3.58518377080426
"16",1031,"Coffee County","AL",-85.994440575848,31.3984765640363,"alabama","coffee",31.4,-86,0.554785192313452
"17",1033,"Colbert County","AL",-87.8109759946497,34.7027604714874,"alabama","colbert",34.7,-87.8,1.05150871643879
"18",1035,"Conecuh County","AL",-86.9906544314942,31.4357778107793,"alabama","conecuh",31.4,-87,4.08056317272873
"19",1037,"Coosa County","AL",-86.2454412404319,32.9402136248312,"alabama","coosa",32.9,-86.2,6.16919876081703
"20",1039,"Covington County","AL",-86.4565510354118,31.2597318559234,"alabama","covington",31.3,-86.5,6.09756759533851
"21",1041,"Crenshaw County","AL",-86.319561565922,31.7359091520861,"alabama","crenshaw",31.7,-86.3,4.40612453175634
"22",1043,"Cullman County","AL",-86.8654480960917,34.1382456953266,"alabama","cullman",34.1,-86.9,5.3163462025263
"23",1045,"Dale County","AL",-85.6190940838866,31.4308664826427,"alabama","dale",31.4,-85.6,3.88523127869607
"24",1047,"Dallas County","AL",-87.0976750850105,32.326702397738,"alabama","dallas",32.3,-87.1,2.9806608243299
"25",1049,"DeKalb County","AL",-85.8122639483642,34.4543948465684,"alabama","de kalb",34.5,-85.8,5.20023103659741
"26",1051,"Elmore County","AL",-86.1541932854688,32.5989298476186,"alabama","elmore",32.6,-86.2,4.29863331800362
"27",1053,"Escambia County","AL",-87.1574652521998,31.1333649331334,"alabama","escambia",31.1,-87.2,5.4987605772872
"28",1055,"Etowah County","AL",-86.0334282005091,34.0527292987796,"alabama","etowah",34.1,-86,6.09825255515693
"29",1057,"Fayette County","AL",-87.7363760924291,33.721934607951,"alabama","fayette",33.7,-87.7,4.15940168548585
"30",1059,"Franklin County","AL",-87.8455837876971,34.4433825446767,"alabama","franklin",34.4,-87.8,6.39150705214318
"31",1061,"Geneva County","AL",-85.8443775992018,31.0999220346083,"alabama","geneva",31.1,-85.8,4.23121220991829
"32",1063,"Greene County","AL",-87.9481399888768,32.8657010054494,"alabama","greene",32.9,-87.9,5.90233920408853
"33",1065,"Hale County","AL",-87.622197625348,32.7649017598769,"alabama","hale",32.8,-87.6,4.42475232537756
"34",1067,"Henry County","AL",-85.2541056997974,31.5159571155274,"alabama","henry",31.5,-85.3,4.7029215024729
"35",1069,"Houston County","AL",-85.3154302113535,31.1525406751487,"alabama","houston",31.2,-85.3,5.48413442273134
"36",1071,"Jackson County","AL",-85.9977508929156,34.7768364559145,"alabama","jackson",34.8,-86,2.58665455740483
"37",1073,"Jefferson County","AL",-86.8902543427049,33.5630578440965,"alabama","jefferson",33.6,-86.9,4.21024300469293
"38",1075,"Lamar County","AL",-88.0979565231911,33.7817036765654,"alabama","lamar",33.8,-88.1,2.04546024777577
"39",1077,"Lauderdale County","AL",-87.654204783402,34.9040873260485,"alabama","lauderdale",34.9,-87.7,4.206723005124
"40",1079,"Lawrence County","AL",-87.3055882553921,34.5248223708908,"alabama","lawrence",34.5,-87.3,2.81056138164529
"41",1081,"Lee County","AL",-85.3552633638516,32.6099175076918,"alabama","lee",32.6,-85.4,4.33755430864021
"42",1083,"Limestone County","AL",-86.9736926817958,34.8122250832312,"alabama","limestone",34.8,-87,2.76300851607745
"43",1085,"Lowndes County","AL",-86.6500357776905,32.1578071491664,"alabama","lowndes",32.2,-86.7,6.65086200680475
"44",1087,"Macon County","AL",-85.6951135852852,32.3938581216574,"alabama","macon",32.4,-85.7,0.824436625448876
"45",1089,"Madison County","AL",-86.5431266790131,34.7651876840906,"alabama","madison",34.8,-86.5,5.52854022768782
"46",1091,"Marengo County","AL",-87.7783120188051,32.2512324336624,"alabama","marengo",32.3,-87.8,5.79937850873
"47",1093,"Marion County","AL",-87.883197836516,34.1379170776679,"alabama","marion",34.1,-87.9,4.49594392176782
"48",1095,"Marshall County","AL",-86.3060672405675,34.3702960027396,"alabama","marshall",34.4,-86.3,3.35363641080347
"49",1097,"Mobile County","AL",-88.2069647609245,30.8136175949597,"alabama","mobile",30.8,-88.2,1.65532862935269
"50",1099,"Monroe County","AL",-87.3640023731747,31.5722001497279,"alabama","monroe",31.6,-87.4,4.60714679215119
"51",1101,"Montgomery County","AL",-86.2071018957768,32.2253798048809,"alabama","montgomery",32.2,-86.2,2.9030208384475
"52",1103,"Morgan County","AL",-86.84793577314,34.4579999404781,"alabama","morgan",34.5,-86.8,6.42019303873126
"53",1105,"Perry County","AL",-87.2840657258622,32.6375514251045,"alabama","perry",32.6,-87.3,4.43894466390406
"54",1107,"Pickens County","AL",-88.0868871809606,33.2804353735732,"alabama","pickens",33.3,-88.1,2.4966372862019
"55",1109,"Pike County","AL",-85.9417875611777,31.8054749851606,"alabama","pike",31.8,-85.9,4.00067553989227
"56",1111,"Randolph County","AL",-85.4565991966491,33.2941748381246,"alabama","randolph",33.3,-85.5,4.08993648026479
"57",1113,"Russell County","AL",-85.194105390561,32.2951998508918,"alabama","russell",32.3,-85.2,0.770951127580653
"58",1115,"St. Clair County","AL",-86.3139306386796,33.7244650624724,"alabama","st clair",33.7,-86.3,3.01390026816863
"59",1117,"Shelby County","AL",-86.6651036276789,33.2676112435908,"alabama","shelby",33.3,-86.7,4.85305305640731
"60",1119,"Sumter County","AL",-88.1920632254297,32.5896194831096,"alabama","sumter",32.6,-88.2,1.37502607942934
"61",1121,"Talladega County","AL",-86.1631135021639,33.3865306993282,"alabama","talladega",33.4,-86.2,3.74296161105036
"62",1123,"Tallapoosa County","AL",-85.8010116039468,32.8684341284699,"alabama","tallapoosa",32.9,-85.8,3.51536971681854
"63",1125,"Tuscaloosa County","AL",-87.5169608754408,33.2943769666044,"alabama","tuscaloosa",33.3,-87.5,1.69769542236674
"64",1127,"Walker County","AL",-87.2891788824212,33.8132904375486,"alabama","walker",33.8,-87.3,1.78569949687674
"65",1129,"Washington County","AL",-88.2056405047365,31.4131960764709,"alabama","washington",31.4,-88.2,1.56332377484798
"66",1131,"Wilcox County","AL",-87.2977354031405,31.9930757622925,"alabama","wilcox",32,-87.3,0.799596044254687
"67",1133,"Winston County","AL",-87.3700359545126,34.1531492160645,"alabama","winston",34.2,-87.4,5.90028954358652
"68",4001,"Apache County","AZ",-109.491146460603,35.4050948950151,"arizona","apache",35.4,-109.5,0.983278382791506
"69",4003,"Cochise County","AZ",-109.762948908843,31.8863115497341,"arizona","cochise",31.9,-109.8,3.81926609298244
"70",4005,"Coconino County","AZ",-111.768250021295,35.8339239212172,"arizona","coconino",35.8,-111.8,4.74102865162816
"71",4007,"Gila County","AZ",-110.813307651172,33.7995711508474,"arizona","gila",33.8,-110.8,1.23166421252076
"72",4009,"Graham County","AZ",-109.899018397705,32.9344150340866,"arizona","graham",32.9,-109.9,3.83197863833863
"73",4011,"Greenlee County","AZ",-109.246620642241,33.2088611471552,"arizona","greenlee",33.2,-109.2,4.45329427492504
"74",4013,"Maricopa County","AZ",-112.489138868957,33.3526370729525,"arizona","maricopa",33.4,-112.5,5.36838610040693
"75",4015,"Mohave County","AZ",-113.753022572314,35.7064770176524,"arizona","mohave",35.7,-113.8,4.30765336485931
"76",4017,"Navajo County","AZ",-110.322763412492,35.3927659078086,"arizona","navajo",35.4,-110.3,2.21686305241017
"77",4019,"Pima County","AZ",-111.800169618225,32.1050129590631,"arizona","pima",32.1,-111.8,0.558430849192981
"78",4021,"Pinal County","AZ",-111.351874077133,32.906676648512,"arizona","pinal",32.9,-111.4,4.55837279670722
"79",4023,"Santa Cruz County","AZ",-110.863080313544,31.5360057665392,"arizona","santa cruz",31.5,-110.9,5.32317478104978
"80",4025,"Yavapai County","AZ",-112.549973184911,34.5979815502372,"arizona","yavapai",34.6,-112.5,4.58465565614022
"81",4027,"Yuma County","AZ",-113.907857526752,32.779781618327,"arizona","yuma",32.8,-113.9,2.36787020199065
"82",5001,"Arkansas County","AR",-91.3733486189687,34.2966905705236,"arkansas","arkansas",34.3,-91.4,2.47789711717331
"83",5003,"Ashley County","AR",-91.7718601019705,33.1864663089106,"arkansas","ashley",33.2,-91.8,3.02252820113521
"84",5005,"Baxter County","AR",-92.3434614096424,36.2916046024747,"arkansas","baxter",36.3,-92.3,4.01084997653837
"85",5007,"Benton County","AR",-94.264025994959,36.3416775500572,"arkansas","benton",36.3,-94.3,5.65063002241719
"86",5009,"Boone County","AR",-93.0886378470362,36.309183284617,"arkansas","boone",36.3,-93.1,1.44406344803174
"87",5011,"Bradley County","AR",-92.1659970700924,33.4646304080679,"arkansas","bradley",33.5,-92.2,5.04744613724961
"88",5013,"Calhoun County","AR",-92.5104241818729,33.5539665264041,"arkansas","calhoun",33.6,-92.5,5.21465770980596
"89",5015,"Carroll County","AR",-93.547630936813,36.3378140869541,"arkansas","carroll",36.3,-93.5,5.9976511510584
"90",5017,"Chicot County","AR",-91.296306652698,33.2609175239363,"arkansas","chicot",33.3,-91.3,4.36402330257383
"91",5019,"Clark County","AR",-93.174394888418,34.0570331597207,"arkansas","clark",34.1,-93.2,5.33431181666245
"92",5021,"Clay County","AR",-90.4250164765273,36.371796158692,"arkansas","clay",36.4,-90.4,3.85835737226489
"93",5023,"Cleburne County","AR",-92.0413208110853,35.5298264683868,"arkansas","cleburne",35.5,-92,5.00423108559619
"94",5025,"Cleveland County","AR",-92.1812967860178,33.8995795631048,"arkansas","cleveland",33.9,-92.2,1.7298823423411
"95",5027,"Columbia County","AR",-93.2292097556545,33.2154889747987,"arkansas","columbia",33.2,-93.2,3.21995481939628
"96",5029,"Conway County","AR",-92.6983587246906,35.2537343467359,"arkansas","conway",35.3,-92.7,5.15237568308017
"97",5031,"Craighead County","AR",-90.6430341027994,35.8291572139313,"arkansas","craighead",35.8,-90.6,5.0618461629199
"98",5033,"Crawford County","AR",-94.2517575424175,35.584397199214,"arkansas","crawford",35.6,-94.3,4.69868272121897
"99",5035,"Crittenden County","AR",-90.3014990330979,35.2014407310531,"arkansas","crittenden",35.2,-90.3,0.211168832823267
"100",5037,"Cross County","AR",-90.7755108090697,35.2891573445256,"arkansas","cross",35.3,-90.8,2.53031948893525
"101",5039,"Dallas County","AR",-92.64901096306,33.9706926330338,"arkansas","dallas",34,-92.6,5.57713270713216
"102",5041,"Desha County","AR",-91.2714734278985,33.8323409821788,"arkansas","desha",33.8,-91.3,4.46282744162762
"103",5043,"Drew County","AR",-91.7233153302248,33.5863951559028,"arkansas","drew",33.6,-91.7,2.63863555945106
"104",5045,"Faulkner County","AR",-92.3309435175229,35.1422425344511,"arkansas","faulkner",35.1,-92.3,5.48259010668326
"105",5047,"Franklin County","AR",-93.8983096337508,35.5054675778763,"arkansas","franklin",35.5,-93.9,0.627494714477217
"106",5049,"Fulton County","AR",-91.8249056560474,36.3795683631908,"arkansas","fulton",36.4,-91.8,3.18745700367039
"107",5051,"Garland County","AR",-93.1444441239254,34.5764415853217,"arkansas","garland",34.6,-93.1,4.84373712059265
"108",5053,"Grant County","AR",-92.4253928774294,34.2974904287612,"arkansas","grant",34.3,-92.4,2.3523836612189
"109",5055,"Greene County","AR",-90.5598378759332,36.1161983317322,"arkansas","greene",36.1,-90.6,4.03765949377812
"110",5057,"Hempstead County","AR",-93.6685350705301,33.7357778292865,"arkansas","hempstead",33.7,-93.7,4.93523344952293
"111",5059,"Hot Spring County","AR",-92.9384466993522,34.3223661057806,"arkansas","hot spring",34.3,-92.9,4.32440587235991
"112",5061,"Howard County","AR",-93.997883317203,34.0955366789395,"arkansas","howard",34.1,-94,0.533635957042334
"113",5063,"Independence County","AR",-91.5785778989027,35.7354215074489,"arkansas","independence",35.7,-91.6,4.39297022256693
"114",5065,"Izard County","AR",-91.9243404015717,36.086224858715,"arkansas","izard",36.1,-91.9,2.67342344722151
"115",5067,"Jackson County","AR",-91.2231638413181,35.5912204450711,"arkansas","jackson",35.6,-91.2,2.3122820632796
"116",5069,"Jefferson County","AR",-91.9317523534047,34.2758679338275,"arkansas","jefferson",34.3,-91.9,3.96838698566346
"117",5071,"Johnson County","AR",-93.4714218079629,35.5632314004738,"arkansas","johnson",35.6,-93.5,4.84210552224876
"118",5073,"Lafayette County","AR",-93.606661421653,33.23929762587,"arkansas","lafayette",33.2,-93.6,4.41819545494659
"119",5075,"Lawrence County","AR",-91.117918697363,36.0375426173566,"arkansas","lawrence",36,-91.1,4.47963016531709
"120",5077,"Lee County","AR",-90.7740180933498,34.7829489325652,"arkansas","lee",34.8,-90.8,3.03957759303818
"121",5079,"Lincoln County","AR",-91.7260978082412,33.9634447417876,"arkansas","lincoln",34,-91.7,4.72835290852842
"122",5081,"Little River County","AR",-94.2431688660344,33.7094300838337,"arkansas","little river",33.7,-94.2,4.13217836209785
"123",5083,"Logan County","AR",-93.7242869754685,35.2106323256837,"arkansas","logan",35.2,-93.7,2.5051724439878
"124",5085,"Lonoke County","AR",-91.8911335540308,34.7567821332202,"arkansas","lonoke",34.8,-91.9,4.87864076495361
"125",5087,"Madison County","AR",-93.7308615183217,36.0038970118594,"arkansas","madison",36,-93.7,2.81186636098962
"126",5089,"Marion County","AR",-92.681893870018,36.2636623693825,"arkansas","marion",36.3,-92.7,4.3595305138466
"127",5091,"Miller County","AR",-93.8957210370478,33.3189346501146,"arkansas","miller",33.3,-93.9,2.14503499981046
"128",5093,"Mississippi County","AR",-90.0554017152085,35.7557053141909,"arkansas","mississippi",35.8,-90.1,6.36710197477711
"129",5095,"Monroe County","AR",-91.2085674248188,34.6757781193154,"arkansas","monroe",34.7,-91.2,2.80786236356287
"130",5097,"Montgomery County","AR",-93.6583185509703,34.5477290251178,"arkansas","montgomery",34.5,-93.7,6.54616392080493
"131",5099,"Nevada County","AR",-93.3071693984676,33.6637179685923,"arkansas","nevada",33.7,-93.3,4.09340108875481
"132",5101,"Newton County","AR",-93.2204126887388,35.9112377950693,"arkansas","newton",35.9,-93.2,2.22443672000556
"133",5103,"Ouachita County","AR",-92.8870999576128,33.5975916385369,"arkansas","ouachita",33.6,-92.9,1.22520161633312
"134",5105,"Perry County","AR",-92.9415163009449,34.9423457912257,"arkansas","perry",34.9,-92.9,6.04840878626394
"135",5107,"Phillips County","AR",-90.8502378885733,34.4359320214337,"arkansas","phillips",34.4,-90.9,6.07251285296301
"136",5109,"Pike County","AR",-93.6588417116683,34.1713051055745,"arkansas","pike",34.2,-93.7,4.95756506858015
"137",5111,"Poinsett County","AR",-90.6673735642984,35.5678427090494,"arkansas","poinsett",35.6,-90.7,4.6415935080488
"138",5113,"Polk County","AR",-94.2378527190756,34.4970142946061,"arkansas","polk",34.5,-94.2,3.48747414529921
"139",5115,"Pope County","AR",-93.0333960172532,35.4408190819314,"arkansas","pope",35.4,-93,5.46116679285395
"140",5117,"Prairie County","AR",-91.5538506344373,34.8317376085571,"arkansas","prairie",34.8,-91.6,5.50240542422182
"141",5119,"Pulaski County","AR",-92.3127228992504,34.7718331531253,"arkansas","pulaski",34.8,-92.3,3.34463356041795
"142",5121,"Randolph County","AR",-91.0407468976123,36.3458117324833,"arkansas","randolph",36.3,-91,6.27407168030637
"143",5123,"St. Francis County","AR",-90.7606298159485,35.0154943464874,"arkansas","st francis",35,-90.8,3.9816078214228
"144",5125,"Saline County","AR",-92.6723080115477,34.6500778458355,"arkansas","saline",34.7,-92.7,6.10878819125831
"145",5127,"Scott County","AR",-94.0745859023814,34.8665365402779,"arkansas","scott",34.9,-94.1,4.38934763554117
"146",5129,"Searcy County","AR",-92.6987788640251,35.9044190960188,"arkansas","searcy",35.9,-92.7,0.504180087786384
"147",5131,"Sebastian County","AR",-94.2803931186354,35.2038251980023,"arkansas","sebastian",35.2,-94.3,1.83251082355122
"148",5133,"Sevier County","AR",-94.2527073812027,34.000887456855,"arkansas","sevier",34,-94.3,4.36451193908507
"149",5135,"Sharp County","AR",-91.493873431797,36.1530859802026,"arkansas","sharp",36.2,-91.5,5.25146509535191
"150",5137,"Stone County","AR",-92.1609512828929,35.853219629155,"arkansas","stone",35.9,-92.2,6.28761871855216
"151",5139,"Union County","AR",-92.6011336955415,33.1707978383891,"arkansas","union",33.2,-92.6,3.25255159202319
"152",5141,"Van Buren County","AR",-92.5262734495765,35.5736545483683,"arkansas","van buren",35.6,-92.5,3.77589538546096
"153",5143,"Washington County","AR",-94.2216888134588,35.9760941259323,"arkansas","washington",36,-94.2,3.30062079391792
"154",5145,"White County","AR",-91.7456182199986,35.2527104716531,"arkansas","white",35.3,-91.7,6.69993830344493
"155",5147,"Woodruff County","AR",-91.2463927670546,35.1818548999331,"arkansas","woodruff",35.2,-91.2,4.67803615150809
"156",5149,"Yell County","AR",-93.413702711886,35.0045598183947,"arkansas","yell",35,-93.4,1.34916708838989
"157",6001,"Alameda County","CA",-121.84949433985,37.6465374459748,"california","alameda",37.6,-121.8,6.77354217407549
"158",6003,"Alpine County","CA",-119.817664810032,38.5954053263136,"california","alpine",38.6,-119.8,1.61943164767643
"159",6005,"Amador County","CA",-120.64086448759,38.4525654154474,"california","amador",38.5,-120.6,6.36878270542143
"160",6007,"Butte County","CA",-121.600771230573,39.6672339391694,"california","butte",39.7,-121.6,3.64817504693964
"161",6009,"Calaveras County","CA",-120.553016528384,38.2092068947226,"california","calaveras",38.2,-120.6,4.23627302490493
"162",6011,"Colusa County","CA",-122.241494639372,39.1827004240772,"california","colusa",39.2,-122.2,4.06540162970028
"163",6013,"Contra Costa County","CA",-121.916679395843,37.9186107459864,"california","contra costa",37.9,-121.9,2.53752207526672
"164",6015,"Del Norte County","CA",-123.903649467453,41.7602686803322,"california","del norte",41.8,-123.9,4.43318342588027
"165",6017,"El Dorado County","CA",-120.52854538896,38.7807565919343,"california","el dorado",38.8,-120.5,3.27461002045837
"166",6019,"Fresno County","CA",-119.641035500651,36.7536778577437,"california","fresno",36.8,-119.6,6.32239524107693
"167",6021,"Glenn County","CA",-122.391278719288,39.6051235221567,"california","glenn",39.6,-122.4,0.940344333818236
"168",6023,"Humboldt County","CA",-123.875443982776,40.7074530439773,"california","humboldt",40.7,-123.9,2.23169677884055
"169",6025,"Imperial County","CA",-115.37514125584,33.0447159977397,"california","imperial",33,-115.4,5.49171695909679
"170",6027,"Inyo County","CA",-117.418496529915,36.5163500398541,"california","inyo",36.5,-117.4,2.46038025082561
"171",6029,"Kern County","CA",-118.728691970382,35.3416290495964,"california","kern",35.3,-118.7,5.31684618949673
"172",6031,"Kings County","CA",-119.805536684368,36.066444239207,"california","kings",36.1,-119.8,3.76826937740675
"173",6033,"Lake County","CA",-122.762571051551,39.1090821801266,"california","lake",39.1,-122.8,3.38793262345672
"174",6035,"Lassen County","CA",-120.600690601376,40.6874672995682,"california","lassen",40.7,-120.6,1.3964144054569
"175",6037,"Los Angeles County","CA",-118.212741867206,34.3699569287734,"california","los angeles",34.4,-118.2,3.54357035525752
"176",6039,"Madera County","CA",-119.762413236247,37.2135718720761,"california","madera",37.2,-119.8,3.65918184941739
"177",6041,"Marin County","CA",-122.695332026438,38.0710497466485,"california","marin",38.1,-122.7,3.24837509173518
"178",6043,"Mariposa County","CA",-119.898357178571,37.5805594919136,"california","mariposa",37.6,-119.9,2.16874836757532
"179",6045,"Mendocino County","CA",-123.384896100143,39.4564006098438,"california","mendocino",39.5,-123.4,5.02384071036263
"180",6047,"Merced County","CA",-120.721091311373,37.1852345239544,"california","merced",37.2,-120.7,2.4902098470083
"181",6049,"Modoc County","CA",-120.738326055976,41.6084686516257,"california","modoc",41.6,-120.7,3.32689095085725
"182",6051,"Mono County","CA",-118.887350475437,37.9387661235196,"california","mono",37.9,-118.9,4.4558072920323
"183",6053,"Monterey County","CA",-121.212365113358,36.2088467551408,"california","monterey",36.2,-121.2,1.48457411840992
"184",6055,"Napa County","CA",-122.338231172264,38.5091311986225,"california","napa",38.5,-122.3,3.48188152873419
"185",6057,"Nevada County","CA",-120.77038746003,39.3040746404315,"california","nevada",39.3,-120.8,2.59114127635564
"186",6059,"Orange County","CA",-117.753270626706,33.7169558795831,"california","orange",33.7,-117.8,4.72127519281752
"187",6061,"Placer County","CA",-120.716592734868,39.0666090830929,"california","placer",39.1,-120.7,3.983933452695
"188",6063,"Plumas County","CA",-120.849650629147,40.0153053435976,"california","plumas",40,-120.8,4.56325919539249
"189",6065,"Riverside County","CA",-116.009319130934,33.7456214811381,"california","riverside",33.7,-116,5.15125262226541
"190",6067,"Sacramento County","CA",-121.337509789877,38.4513577625945,"california","sacramento",38.5,-121.3,6.3249185148194
"191",6069,"San Benito County","CA",-121.069485294617,36.6020887245199,"california","san benito",36.6,-121.1,2.7374913746853
"192",6071,"San Bernardino County","CA",-116.17293625371,34.8451650202009,"california","san bernardino",34.8,-116.2,5.60308089660602
"193",6073,"San Diego County","CA",-116.720188386316,33.0401459495961,"california","san diego",33,-116.7,4.85016594593937
"194",6075,"San Francisco County","CA",-122.406548748514,37.753324004622,"california","san francisco",37.8,-122.4,5.2277746468135
"195",6077,"San Joaquin County","CA",-121.267812951903,37.9407222417432,"california","san joaquin",37.9,-121.3,5.34219315952938
"196",6079,"San Luis Obispo County","CA",-120.372441897186,35.3793066604115,"california","san luis obispo",35.4,-120.4,3.39987044052235
"197",6081,"San Mateo County","CA",-122.298159302402,37.4368290823388,"california","san mateo",37.4,-122.3,4.10286435790752
"198",6083,"Santa Barbara County","CA",-120.010974818072,34.733514588491,"california","santa barbara",34.7,-120,3.86353358252056
"199",6085,"Santa Clara County","CA",-121.692274112787,37.2300150945929,"california","santa clara",37.2,-121.7,3.41060399191339
"200",6087,"Santa Cruz County","CA",-121.994953916819,37.0660268383517,"california","santa cruz",37.1,-122,3.80816364653814
"201",6089,"Shasta County","CA",-122.054827228215,40.7799972023433,"california","shasta",40.8,-122.1,4.4109587585578
"202",6091,"Sierra County","CA",-120.511209843809,39.5824897471059,"california","sierra",39.6,-120.5,2.17337702027396
"203",6093,"Siskiyou County","CA",-122.563089621977,41.603634183713,"california","siskiyou",41.6,-122.6,3.09954488035354
"204",6095,"Solano County","CA",-121.921901579182,38.2789084210836,"california","solano",38.3,-121.9,3.02923024127116
"205",6097,"Sonoma County","CA",-122.876329207016,38.5330778335282,"california","sonoma",38.5,-122.9,4.21984946233333
"206",6099,"Stanislaus County","CA",-120.997342879931,37.557803468029,"california","stanislaus",37.6,-121,4.70297242626881
"207",6101,"Sutter County","CA",-121.690171942831,39.0344917576361,"california","sutter",39,-121.7,3.93251477923998
"208",6103,"Tehama County","CA",-122.245791234196,40.1364809959427,"california","tehama",40.1,-122.2,5.62945344162317
"209",6105,"Trinity County","CA",-123.128127469938,40.673654411725,"california","trinity",40.7,-123.1,3.77312761372402
"210",6107,"Tulare County","CA",-118.791992936775,36.2181266011573,"california","tulare",36.2,-118.8,2.14219204734489
"211",6109,"Tuolumne County","CA",-119.955589050602,38.0288413544468,"california","tuolumne",38,-120,5.04767713922179
"212",6111,"Ventura County","CA",-119.071523859832,34.4901459038316,"california","ventura",34.5,-119.1,2.8340558883248
"213",6113,"Yolo County","CA",-121.904841352759,38.691680432312,"california","yolo",38.7,-121.9,1.01747128515862
"214",6115,"Yuba County","CA",-121.35266050273,39.2651100258539,"california","yuba",39.3,-121.4,5.63189867453711
"215",8001,"Adams County","CO",-104.336534362786,39.8802861418787,"colorado","adams",39.9,-104.3,3.81479023383307
"216",8003,"Alamosa County","CO",-105.799754906992,37.5569013484138,"colorado","alamosa",37.6,-105.8,4.79760003663964
"217",8005,"Arapahoe County","CO",-104.339407982435,39.6526757620356,"colorado","arapahoe",39.7,-104.3,6.25718051659282
"218",8007,"Archuleta County","CO",-107.032728576632,37.18456622936,"colorado","archuleta",37.2,-107,3.3727631725579
"219",8009,"Baca County","CO",-102.563986470226,37.3126859982796,"colorado","baca",37.3,-102.6,3.48803334920738
"220",8011,"Bent County","CO",-103.079215443596,37.9429830480231,"colorado","bent",37.9,-103.1,5.12117695036993
"221",8013,"Boulder County","CO",-105.354226959776,40.0936466733349,"colorado","boulder",40.1,-105.4,3.96089003308126
"222",8015,"Chaffee County","CO",-106.203326415951,38.7480213943664,"colorado","chaffee",38.7,-106.2,5.35344711547253
"223",8017,"Cheyenne County","CO",-102.611589948316,38.8263896493132,"colorado","cheyenne",38.8,-102.6,3.10484325131973
"224",8019,"Clear Creek County","CO",-105.64678223199,39.687062482111,"colorado","clear creek",39.7,-105.6,4.2577170312799
"225",8021,"Conejos County","CO",-106.192382989387,37.1887044142696,"colorado","conejos",37.2,-106.2,1.42729708331044
"226",8023,"Costilla County","CO",-105.435887805238,37.2763064614445,"colorado","costilla",37.3,-105.4,4.13062571330122
"227",8025,"Crowley County","CO",-103.783190268835,38.3229138633115,"colorado","crowley",38.3,-103.8,2.94270760513461
"228",8027,"Custer County","CO",-105.370147277357,38.1039156910178,"colorado","custer",38.1,-105.4,2.65064456186128
"229",8029,"Delta County","CO",-107.876665379318,38.8464674720178,"colorado","delta",38.8,-107.9,5.55441057956364
"230",8031,"Denver County","CO",-104.870505831632,39.7610053912954,"colorado","denver",39.8,-104.9,5.02058160138737
"231",8033,"Dolores County","CO",-108.500245092356,37.7555354061916,"colorado","dolores",37.8,-108.5,4.94973798722777
"232",8035,"Douglas County","CO",-104.925021504108,39.3248934164609,"colorado","douglas",39.3,-104.9,3.51085816614313
"233",8037,"Eagle County","CO",-106.699941263662,39.6200812447974,"colorado","eagle",39.6,-106.7,2.23560890600414
"234",8039,"Elbert County","CO",-104.133561354386,39.2875523894561,"colorado","elbert",39.3,-104.1,3.20572679541424
"235",8041,"El Paso County","CO",-104.517458428788,38.8249896888375,"colorado","el paso",38.8,-104.5,3.16738955853475
"236",8043,"Fremont County","CO",-105.439800671086,38.4673586839046,"colorado","fremont",38.5,-105.4,5.02347162705269
"237",8045,"Garfield County","CO",-107.907918101318,39.596626846081,"colorado","garfield",39.6,-107.9,0.776443056004609
"238",8047,"Gilpin County","CO",-105.525616098628,39.8608976201316,"colorado","gilpin",39.9,-105.5,4.87209197630331
"239",8049,"Grand County","CO",-106.121660603526,40.0982670254713,"colorado","grand",40.1,-106.1,1.85396483689773
"240",8051,"Gunnison County","CO",-107.041098150338,38.6618752783946,"colorado","gunnison",38.7,-107,5.54685941738211
"241",8053,"Hinsdale County","CO",-107.302576865217,37.8283658687192,"colorado","hinsdale",37.8,-107.3,3.16586092305851
"242",8055,"Huerfano County","CO",-104.960913889274,37.6854218414497,"colorado","huerfano",37.7,-105,3.8063147495584
"243",8057,"Jackson County","CO",-106.352509048882,40.6674075747722,"colorado","jackson",40.7,-106.4,5.40666993311275
"244",8059,"Jefferson County","CO",-105.248553060968,39.5905301500173,"colorado","jefferson",39.6,-105.2,4.29638821677031
"245",8061,"Kiowa County","CO",-102.744802198164,38.4221234155794,"colorado","kiowa",38.4,-102.7,4.61824943850943
"246",8063,"Kit Carson County","CO",-102.607030648588,39.310654946307,"colorado","kit carson",39.3,-102.6,1.33159881486045
"247",8065,"Lake County","CO",-106.352012010092,39.1937676126608,"colorado","lake",39.2,-106.4,4.19716178498758
"248",8067,"La Plata County","CO",-107.83829740873,37.2827493534157,"colorado","la plata",37.3,-107.8,3.89731682533497
"249",8069,"Larimer County","CO",-105.468762253654,40.67448521295,"colorado","larimer",40.7,-105.5,3.87563650738041
"250",8071,"Las Animas County","CO",-104.049774595094,37.3032025974304,"colorado","las animas",37.3,-104,4.42193317578325
"251",8073,"Lincoln County","CO",-103.514965215463,38.9902391806965,"colorado","lincoln",39,-103.5,1.69027126910804
"252",8075,"Logan County","CO",-103.108923859308,40.7300008239449,"colorado","logan",40.7,-103.1,3.42330919941268
"253",8077,"Mesa County","CO",-108.465165359024,39.0182567624543,"colorado","mesa",39,-108.5,3.63452903029827
"254",8079,"Mineral County","CO",-106.929579644593,37.6612380378142,"colorado","mineral",37.7,-106.9,5.04120459476894
"255",8081,"Moffat County","CO",-108.203455409209,40.6223842893938,"colorado","moffat",40.6,-108.2,2.5090579069279
"256",8083,"Montezuma County","CO",-108.608594088515,37.3443647210694,"colorado","montezuma",37.3,-108.6,4.99691634270535
"257",8085,"Montrose County","CO",-108.277236523514,38.395217666127,"colorado","montrose",38.4,-108.3,2.05637740994515
"258",8087,"Morgan County","CO",-103.805227054677,40.2723559667764,"colorado","morgan",40.3,-103.8,3.10923028680506
"259",8089,"Otero County","CO",-103.719923248169,37.8951040432694,"colorado","otero",37.9,-103.7,1.83205143002064
"260",8091,"Ouray County","CO",-107.771471689896,38.1547307928861,"colorado","ouray",38.2,-107.8,5.62401373350769
"261",8093,"Park County","CO",-105.720031402853,39.1194586226836,"colorado","park",39.1,-105.7,2.772638903477
"262",8095,"Phillips County","CO",-102.366102584072,40.5968902414737,"colorado","phillips",40.6,-102.4,2.88543862018565
"263",8097,"Pitkin County","CO",-106.917074837497,39.2125123934995,"colorado","pitkin",39.2,-106.9,2.02748844924413
"264",8099,"Prowers County","CO",-102.397783632069,37.9458608761165,"colorado","prowers",37.9,-102.4,5.10872776947799
"265",8101,"Pueblo County","CO",-104.506987652418,38.1683845171193,"colorado","pueblo",38.2,-104.5,3.57221871216469
"266",8103,"Rio Blanco County","CO",-108.212332920026,39.9805380302858,"colorado","rio blanco",40,-108.2,2.40845159215383
"267",8105,"Rio Grande County","CO",-106.39107416505,37.5726711255875,"colorado","rio grande",37.6,-106.4,3.14217865550929
"268",8107,"Routt County","CO",-106.994664639154,40.4930637101669,"colorado","routt",40.5,-107,0.89453639931651
"269",8109,"Saguache County","CO",-106.281382125065,38.0725419278638,"colorado","saguache",38.1,-106.3,3.46464184352435
"270",8111,"San Juan County","CO",-107.676552018014,37.7586538708551,"colorado","san juan",37.8,-107.7,5.04365966796392
"271",8113,"San Miguel County","CO",-108.414771688043,37.9997750101288,"colorado","san miguel",38,-108.4,1.29656591473032
"272",8115,"Sedgwick County","CO",-102.35897067431,40.8777720359565,"colorado","sedgwick",40.9,-102.4,4.24759509006265
"273",8117,"Summit County","CO",-106.122038056307,39.6263822681821,"colorado","summit",39.6,-106.1,3.4922689040566
"274",8119,"Teller County","CO",-105.158313160131,38.8793989656047,"colorado","teller",38.9,-105.2,4.27839525363617
"275",8121,"Washington County","CO",-103.198769569876,39.9770259469435,"colorado","washington",40,-103.2,2.55965501611174
"276",8123,"Weld County","CO",-104.389899736953,40.5623457441594,"colorado","weld",40.6,-104.4,4.27748124087125
"277",8125,"Yuma County","CO",-102.424616290651,40.0066856307142,"colorado","yuma",40,-102.4,2.22759212816549
"278",9001,"Fairfield County","CT",-73.3923131416263,41.2813326914127,"connecticut","fairfield",41.3,-73.4,2.17499466093631
"279",9003,"Hartford County","CT",-72.7322187950207,41.8049192683409,"connecticut","hartford",41.8,-72.7,2.72813613627246
"280",9005,"Litchfield County","CT",-73.2515054883293,41.7959424130396,"connecticut","litchfield",41.8,-73.3,4.04874542171818
"281",9007,"Middlesex County","CT",-72.5326008204034,41.4656100403291,"connecticut","middlesex",41.5,-72.5,4.69545924454588
"282",9009,"New Haven County","CT",-72.9274310528253,41.411966418188,"connecticut","new haven",41.4,-72.9,2.64990590653281
"283",9011,"New London County","CT",-72.0980264157839,41.4892796933198,"connecticut","new london",41.5,-72.1,1.20474093095264
"284",9013,"Tolland County","CT",-72.3370702879945,41.8591610547464,"connecticut","tolland",41.9,-72.3,5.4877713731667
"285",9015,"Windham County","CT",-71.9825322249175,41.8342166560207,"connecticut","windham",41.8,-72,4.07543173557437
"286",10001,"Kent County","DE",-75.5738764696064,39.0876539787509,"delaware","kent",39.1,-75.6,2.64286652771489
"287",10003,"New Castle County","DE",-75.6551912493428,39.5833575200314,"delaware","new castle",39.6,-75.7,4.26788519987744
"288",10005,"Sussex County","DE",-75.4066889565625,38.6657349605645,"delaware","sussex",38.7,-75.4,3.85856416688098
"289",11001,"District of Columbia","DC",-77.0340992037828,38.9107873704696,"district of columbia","washington",38.9,-77,3.18860847246338
"290",12001,"Alachua County","FL",-82.3577509977993,29.6691779326888,"florida","alachua",29.7,-82.4,5.33506570732163
"291",12003,"Baker County","FL",-82.2813425565553,30.3240666443669,"florida","baker",30.3,-82.3,3.22313464409032
"292",12005,"Bay County","FL",-85.6243268792971,30.2953271319745,"florida","bay",30.3,-85.6,2.39475229216696
"293",12007,"Bradford County","FL",-82.1702520790797,29.9425341802873,"florida","bradford",29.9,-82.2,5.53750517476646
"294",12009,"Brevard County","FL",-80.757977362925,28.1775719638426,"florida","brevard",28.2,-80.8,4.81913191924349
"295",12011,"Broward County","FL",-80.4986869360326,26.1425599798939,"florida","broward",26.1,-80.5,4.7395302368407
"296",12013,"Calhoun County","FL",-85.2135871850139,30.4146682008845,"florida","calhoun",30.4,-85.2,2.08924509256538
"297",12015,"Charlotte County","FL",-81.8902270546766,26.9042579006169,"florida","charlotte",26.9,-81.9,1.07925378439436
"298",12017,"Citrus County","FL",-82.4573809759916,28.850250429776,"florida","citrus",28.9,-82.5,6.92313494341812
"299",12019,"Clay County","FL",-81.8454227997933,29.9715746155264,"florida","clay",30,-81.8,5.40410060704971
"300",12021,"Collier County","FL",-81.3566753716462,26.1140020129439,"florida","collier",26.1,-81.4,4.60218274732422
"301",12023,"Columbia County","FL",-82.6211550835981,30.2127659368687,"florida","columbia",30.2,-82.6,2.48172820242268
"302",12086,"Miami-Dade County","FL",-80.5875019605924,25.6078948484869,"florida","miami-dade",25.6,-80.6,1.5323195071499
"303",12027,"DeSoto County","FL",-81.8480412249901,27.1825627544879,"florida","de soto",27.2,-81.8,5.13885712690726
"304",12029,"Dixie County","FL",-83.1563258600026,29.6091867621069,"florida","dixie",29.6,-83.2,4.35018952135707
"305",12031,"Duval County","FL",-81.665833899398,30.3151469529002,"florida","duval",30.3,-81.7,3.6922568545956
"306",12033,"Escambia County","FL",-87.3965743324358,30.7209762048748,"florida","escambia",30.7,-87.4,2.35780033448686
"307",12035,"Flagler County","FL",-81.3154305594177,29.4599548358017,"florida","flagler",29.5,-81.3,4.70229524538982
"308",12037,"Franklin County","FL",-84.8004650514763,29.912307675531,"florida","franklin",29.9,-84.8,1.37090041806976
"309",12039,"Gadsden County","FL",-84.6204685631986,30.5801052643386,"florida","gadsden",30.6,-84.6,2.9580284335343
"310",12041,"Gilchrist County","FL",-82.8031177771396,29.7237840783175,"florida","gilchrist",29.7,-82.8,2.66478546664269
"311",12043,"Glades County","FL",-81.2134809134885,26.947277699466,"florida","glades",26.9,-81.2,5.43009727636468
"312",12045,"Gulf County","FL",-85.2471585167285,29.9584976771872,"florida","gulf",30,-85.2,6.48164419898703
"313",12047,"Hamilton County","FL",-82.9353807013921,30.4872822421128,"florida","hamilton",30.5,-82.9,3.67779359958413
"314",12049,"Hardee County","FL",-81.8112059649739,27.4902166824174,"florida","hardee",27.5,-81.8,1.55344481345058
"315",12051,"Hendry County","FL",-81.1726025051527,26.5383539031063,"florida","hendry",26.5,-81.2,5.06783272261931
"316",12053,"Hernando County","FL",-82.4324998337003,28.5556975583208,"florida","hernando",28.6,-82.4,5.8668598237663
"317",12055,"Highlands County","FL",-81.3362279980267,27.3447790156207,"florida","highlands",27.3,-81.3,6.13963719549411
"318",12057,"Hillsborough County","FL",-82.3082357570496,27.9283642506514,"florida","hillsborough",27.9,-82.3,3.26010649217128
"319",12059,"Holmes County","FL",-85.8264570786038,30.8856802972668,"florida","holmes",30.9,-85.8,2.98903018825068
"320",12061,"Indian River County","FL",-80.6155472591175,27.6830559296306,"florida","indian river",27.7,-80.6,2.4299682490715
"321",12063,"Jackson County","FL",-85.2269997549971,30.7991946872238,"florida","jackson",30.8,-85.2,2.58208631858589
"322",12065,"Jefferson County","FL",-83.8881355350571,30.4394292460113,"florida","jefferson",30.4,-83.9,4.53449698457027
"323",12067,"Lafayette County","FL",-83.181943555853,29.9849334803309,"florida","lafayette",30,-83.2,2.41820757174313
"324",12069,"Lake County","FL",-81.6996555923468,28.7501841761481,"florida","lake",28.8,-81.7,5.5454963823683
"325",12071,"Lee County","FL",-81.8031419787609,26.5801081831122,"florida","lee",26.6,-81.8,2.23653903383616
"326",12073,"Leon County","FL",-84.2734271511782,30.4608522248895,"florida","leon",30.5,-84.3,5.04819053342903
"327",12075,"Levy County","FL",-82.7325523035142,29.3241474740227,"florida","levy",29.3,-82.7,4.14762345548766
"328",12077,"Liberty County","FL",-84.8948063145038,30.2490458338607,"florida","liberty",30.2,-84.9,5.48242638141335
"329",12079,"Madison County","FL",-83.4598906294817,30.4404606774898,"florida","madison",30.4,-83.5,5.92550939563471
"330",12081,"Manatee County","FL",-82.3035261136152,27.4723536546763,"florida","manatee",27.5,-82.3,3.09735005095086
"331",12083,"Marion County","FL",-82.0545517600799,29.2032406000838,"florida","marion",29.2,-82.1,4.43157615946137
"332",12085,"Martin County","FL",-80.3862314095799,27.077770328544,"florida","martin",27.1,-80.4,2.82564157999167
"333",12087,"Monroe County","FL",-81.0702495097182,25.5339340453449,"florida","monroe",25.5,-81.1,4.81726708686414
"334",12089,"Nassau County","FL",-81.8236363386495,30.6004243104691,"florida","nassau",30.6,-81.8,2.26642770705557
"335",12091,"Okaloosa County","FL",-86.6027941962372,30.7398897133176,"florida","okaloosa",30.7,-86.6,4.44842666838098
"336",12093,"Okeechobee County","FL",-80.8942181105639,27.428337856621,"florida","okeechobee",27.4,-80.9,3.2058151239856
"337",12095,"Orange County","FL",-81.3071254500004,28.5015805207634,"florida","orange",28.5,-81.3,0.720093088942509
"338",12097,"Osceola County","FL",-81.1500393152031,28.0570915157165,"florida","osceola",28.1,-81.2,6.84882534329608
"339",12099,"Palm Beach County","FL",-80.5130172016015,26.6890366137399,"florida","palm beach",26.7,-80.5,1.77924546350815
"340",12101,"Pasco County","FL",-82.397470985112,28.3097124681088,"florida","pasco",28.3,-82.4,1.10918505652888
"341",12103,"Pinellas County","FL",-82.7310894088424,27.9485988863493,"florida","pinellas",27.9,-82.7,6.21385563505757
"342",12105,"Polk County","FL",-81.6974690225776,27.9435652584912,"florida","polk",27.9,-81.7,4.85615194335789
"343",12107,"Putnam County","FL",-81.7432332815275,29.5992762383407,"florida","putnam",29.6,-81.7,4.18423425075016
"344",12109,"St. Johns County","FL",-81.4285673434025,29.8937782898753,"florida","st johns",29.9,-81.4,2.84313432806761
"345",12111,"St. Lucie County","FL",-80.4802263379933,27.370425748628,"florida","st lucie",27.4,-80.5,3.82862496308144
"346",12113,"Santa Rosa County","FL",-87.0301389117869,30.7456314183418,"florida","santa rosa",30.7,-87,5.84127940094907
"347",12115,"Sarasota County","FL",-82.3504407530865,27.1778329030205,"florida","sarasota",27.2,-82.4,5.49230859578482
"348",12117,"Seminole County","FL",-81.2208281471916,28.7028009933194,"florida","seminole",28.7,-81.2,2.05627814392655
"349",12119,"Sumter County","FL",-82.0772373051214,28.6913158909746,"florida","sumter",28.7,-82.1,2.42442367786527
"350",12121,"Suwannee County","FL",-82.9854297264818,30.189772079194,"florida","suwannee",30.2,-83,1.80605040681129
"351",12123,"Taylor County","FL",-83.6008960628025,30.0493297167301,"florida","taylor",30,-83.6,5.49202881903633
"352",12125,"Union County","FL",-82.3703141175281,30.0416296944689,"florida","union",30,-82.4,5.44603933884552
"353",12127,"Volusia County","FL",-81.1894502537795,29.0524779588638,"florida","volusia",29.1,-81.2,5.38904727739221
"354",12129,"Wakulla County","FL",-84.4094547313677,30.1755800239752,"florida","wakulla",30.2,-84.4,2.86687889756867
"355",12131,"Walton County","FL",-86.171778828104,30.6721687574374,"florida","walton",30.7,-86.2,4.11150458918403
"356",12133,"Washington County","FL",-85.6836689401603,30.626716755089,"florida","washington",30.6,-85.7,3.36103757464734
"357",13001,"Appling County","GA",-82.3102577688407,31.7441195784444,"georgia","appling",31.7,-82.3,5.00663400555839
"358",13003,"Atkinson County","GA",-82.9003243242963,31.2779968315837,"georgia","atkinson",31.3,-82.9,2.44949826653465
"359",13005,"Bacon County","GA",-82.4799742824622,31.5431624727206,"georgia","bacon",31.5,-82.5,5.16696446387782
"360",13007,"Baker County","GA",-84.4653445532444,31.310185073126,"georgia","baker",31.3,-84.5,3.48575160562817
"361",13009,"Baldwin County","GA",-83.2540689093901,33.0689635366118,"georgia","baldwin",33.1,-83.3,5.50261615988896
"362",13011,"Banks County","GA",-83.4941484086384,34.3525857794167,"georgia","banks",34.4,-83.5,5.30560650837081
"363",13013,"Barrow County","GA",-83.7218060915732,33.9913950812775,"georgia","barrow",34,-83.7,2.22786007846778
"364",13015,"Bartow County","GA",-84.8552528692741,34.2297658104632,"georgia","bartow",34.2,-84.9,5.28597951570692
"365",13017,"Ben Hill County","GA",-83.254746197116,31.7606265696365,"georgia","ben hill",31.8,-83.3,6.12689949246389
"366",13019,"Berrien County","GA",-83.2432232744119,31.2669614023215,"georgia","berrien",31.3,-83.2,5.51589611964001
"367",13021,"Bibb County","GA",-83.7174269309494,32.8137590829473,"georgia","bibb",32.8,-83.7,2.23632553051367
"368",13023,"Bleckley County","GA",-83.3584150568974,32.4355252226253,"georgia","bleckley",32.4,-83.4,5.55917036100701
"369",13025,"Brantley County","GA",-81.99989521295,31.1921679606153,"georgia","brantley",31.2,-82,0.872000656624429
"370",13027,"Brooks County","GA",-83.6001441260397,30.8379057740124,"georgia","brooks",30.8,-83.6,4.2197570212712
"371",13029,"Bryan County","GA",-81.4487490872054,32.019870703004,"georgia","bryan",32,-81.4,5.10618963773467
"372",13031,"Bulloch County","GA",-81.7482336474519,32.4025200813564,"georgia","bulloch",32.4,-81.7,4.54094062771969
"373",13033,"Burke County","GA",-82.005414108651,33.0622907372477,"georgia","burke",33.1,-82,4.2278741125149
"374",13035,"Butts County","GA",-83.9618928714649,33.283831605651,"georgia","butts",33.3,-84,3.97648544247425
"375",13037,"Calhoun County","GA",-84.6419896378826,31.5161246313362,"georgia","calhoun",31.5,-84.6,4.37018968832529
"376",13039,"Camden County","GA",-81.693462389246,30.9402110647483,"georgia","camden",30.9,-81.7,4.51980908285318
"377",13043,"Candler County","GA",-82.0876093570803,32.4052115990983,"georgia","candler",32.4,-82.1,1.3015097356264
"378",13045,"Carroll County","GA",-85.0856672694851,33.5759807258809,"georgia","carroll",33.6,-85.1,2.98604040920734
"379",13047,"Catoosa County","GA",-85.1447143312314,34.8894230364328,"georgia","catoosa",34.9,-85.1,4.24853542684843
"380",13049,"Charlton County","GA",-82.1611940569648,30.7921546999812,"georgia","charlton",30.8,-82.2,3.81323898715175
"381",13051,"Chatham County","GA",-81.1359592618202,32.0047674554995,"georgia","chatham",32,-81.1,3.43528564952662
"382",13053,"Chattahoochee County","GA",-84.7835538206871,32.3426626566264,"georgia","chattahoochee",32.3,-84.8,4.99455789973386
"383",13055,"Chattooga County","GA",-85.3498626403929,34.4625507316686,"georgia","chattooga",34.5,-85.3,6.19068173597895
"384",13057,"Cherokee County","GA",-84.4837160178446,34.2400034965163,"georgia","cherokee",34.2,-84.5,4.69858468030719
"385",13059,"Clarke County","GA",-83.369021441932,33.9491737852751,"georgia","clarke",33.9,-83.4,6.17638240245439
"386",13061,"Clay County","GA",-84.9907301746881,31.6152321993366,"georgia","clay",31.6,-85,1.90981811063532
"387",13063,"Clayton County","GA",-84.3693037063628,33.5359396676262,"georgia","clayton",33.5,-84.4,4.91112528265682
"388",13065,"Clinch County","GA",-82.7341362233362,30.9047853885865,"georgia","clinch",30.9,-82.7,3.30267405428785
"389",13067,"Cobb County","GA",-84.5920424185478,33.9368503735581,"georgia","cobb",33.9,-84.6,4.16743988464607
"390",13069,"Coffee County","GA",-82.8874692921957,31.5371788244084,"georgia","coffee",31.5,-82.9,4.30600748264677
"391",13071,"Colquitt County","GA",-83.7902879579122,31.1718668742568,"georgia","colquitt",31.2,-83.8,3.26523915536908
"392",13073,"Columbia County","GA",-82.2740592431836,33.5457541629313,"georgia","columbia",33.5,-82.3,5.63312188766306
"393",13075,"Cook County","GA",-83.4467112319404,31.1488802623371,"georgia","cook",31.1,-83.4,7.03044071915069
"394",13077,"Coweta County","GA",-84.7774426279603,33.3436803959313,"georgia","coweta",33.3,-84.8,5.29550929615857
"395",13079,"Crawford County","GA",-83.9939809921106,32.7239370986705,"georgia","crawford",32.7,-84,2.72356760175886
"396",13081,"Crisp County","GA",-83.808347577746,31.9166195204707,"georgia","crisp",31.9,-83.8,2.01172087382621
"397",13083,"Dade County","GA",-85.5035160959154,34.8407162114741,"georgia","dade",34.8,-85.5,4.54396839891909
"398",13085,"Dawson County","GA",-84.177809465686,34.4328477511443,"georgia","dawson",34.4,-84.2,4.18649668840814
"399",13087,"Decatur County","GA",-84.5844138628918,30.8742190670071,"georgia","decatur",30.9,-84.6,3.23341790878756
"400",13089,"DeKalb County","GA",-84.2343494419539,33.7659677210602,"georgia","de kalb",33.8,-84.2,4.94419007692275
"401",13091,"Dodge County","GA",-83.1974088576172,32.1691526862281,"georgia","dodge",32.2,-83.2,3.44274024472959
"402",13093,"Dooly County","GA",-83.8294332663961,32.1480710918742,"georgia","dooly",32.1,-83.8,6.02859273663356
"403",13095,"Dougherty County","GA",-84.2357895662547,31.5183973854758,"georgia","dougherty",31.5,-84.2,3.96530072699341
"404",13097,"Douglas County","GA",-84.7710955375332,33.6877415278316,"georgia","douglas",33.7,-84.8,3.00387375541391
"405",13099,"Early County","GA",-84.9189373610462,31.3143289929412,"georgia","early",31.3,-84.9,2.40641212311397
"406",13101,"Echols County","GA",-82.9020951450747,30.7018552249154,"georgia","echols",30.7,-82.9,0.288215606273417
"407",13103,"Effingham County","GA",-81.340249613533,32.3718093122437,"georgia","effingham",32.4,-81.3,4.91670083048329
"408",13105,"Elbert County","GA",-82.838635322698,34.1122056007686,"georgia","elbert",34.1,-82.8,3.81263219038158
"409",13107,"Emanuel County","GA",-82.3201770116222,32.6024750077488,"georgia","emanuel",32.6,-82.3,1.91331229156021
"410",13109,"Evans County","GA",-81.8915273249752,32.1623030594108,"georgia","evans",32.2,-81.9,4.27163230575963
"411",13111,"Fannin County","GA",-84.3360437792899,34.8562525152413,"georgia","fannin",34.9,-84.3,5.87879519031604
"412",13113,"Fayette County","GA",-84.5114642032826,33.4021923274959,"georgia","fayette",33.4,-84.5,1.0929667539102
"413",13115,"Floyd County","GA",-85.2254530158397,34.2474518752457,"georgia","floyd",34.2,-85.2,5.77801523104492
"414",13117,"Forsyth County","GA",-84.1357273155688,34.2264203456928,"georgia","forsyth",34.2,-84.1,4.41166264825765
"415",13119,"Franklin County","GA",-83.2294235859372,34.3766729436956,"georgia","franklin",34.4,-83.2,3.74753289663748
"416",13121,"Fulton County","GA",-84.4675295752258,33.7948377260275,"georgia","fulton",33.8,-84.5,3.05822019312889
"417",13123,"Gilmer County","GA",-84.4648979358807,34.675750659089,"georgia","gilmer",34.7,-84.5,4.19653913893051
"418",13125,"Glascock County","GA",-82.626746632292,33.2248281009347,"georgia","glascock",33.2,-82.6,3.72033436756266
"419",13127,"Glynn County","GA",-81.5921684371396,31.2423750691655,"georgia","glynn",31.2,-81.6,4.77573084299136
"420",13129,"Gordon County","GA",-84.891932935421,34.4917187161686,"georgia","gordon",34.5,-84.9,1.18185866854406
"421",13131,"Grady County","GA",-84.2430457533757,30.8701536734612,"georgia","grady",30.9,-84.2,5.28586338953543
"422",13133,"Greene County","GA",-83.170513623593,33.5735810747698,"georgia","greene",33.6,-83.2,4.01637981614228
"423",13135,"Gwinnett County","GA",-84.0333990931221,33.9491596655839,"georgia","gwinnett",33.9,-84,6.28198060958436
"424",13137,"Habersham County","GA",-83.5345868044703,34.6255748571777,"georgia","habersham",34.6,-83.5,4.25994993552586
"425",13139,"Hall County","GA",-83.8293430249526,34.3085601638629,"georgia","hall",34.3,-83.8,2.86267961775988
"426",13141,"Hancock County","GA",-83.0090191880269,33.2663365392541,"georgia","hancock",33.3,-83,3.84015969498358
"427",13143,"Haralson County","GA",-85.2198749223204,33.7907935172723,"georgia","haralson",33.8,-85.2,2.10393741685598
"428",13145,"Harris County","GA",-84.9156636416322,32.7309423566991,"georgia","harris",32.7,-84.9,3.74404264439213
"429",13147,"Hart County","GA",-82.9657840778573,34.350766874678,"georgia","hart",34.4,-83,6.31836575824399
"430",13149,"Heard County","GA",-85.1366869914565,33.2887557256631,"georgia","heard",33.3,-85.1,3.63532753305761
"431",13151,"Henry County","GA",-84.1598611366863,33.4490839677822,"georgia","henry",33.4,-84.2,6.61582876081678
"432",13153,"Houston County","GA",-83.6929020444111,32.4593690976176,"georgia","houston",32.5,-83.7,4.57202888358695
"433",13155,"Irwin County","GA",-83.3089497794759,31.6005316933413,"georgia","irwin",31.6,-83.3,0.851773592086106
"434",13157,"Jackson County","GA",-83.5638012941958,34.1288792328493,"georgia","jackson",34.1,-83.6,4.63358984509195
"435",13159,"Jasper County","GA",-83.6946353006155,33.3141035516304,"georgia","jasper",33.3,-83.7,1.64784802723554
"436",13161,"Jeff Davis County","GA",-82.6531360465492,31.7954119801623,"georgia","jeff davis",31.8,-82.7,4.46434727400883
"437",13163,"Jefferson County","GA",-82.4271136857894,33.0603551179997,"georgia","jefferson",33.1,-82.4,5.08666767314947
"438",13165,"Jenkins County","GA",-81.9726374871088,32.7966170063695,"georgia","jenkins",32.8,-82,2.58793344471647
"439",13167,"Johnson County","GA",-82.6833370360355,32.7094858954278,"georgia","johnson",32.7,-82.7,1.88538960982014
"440",13169,"Jones County","GA",-83.5671505624403,33.0303716863776,"georgia","jones",33,-83.6,4.56471615025441
"441",13171,"Lamar County","GA",-84.1622718184057,33.0678984321785,"georgia","lamar",33.1,-84.2,5.01597568833566
"442",13173,"Lanier County","GA",-83.0617812689859,31.0185484617367,"georgia","lanier",31,-83.1,4.19097837737546
"443",13175,"Laurens County","GA",-82.9435242028468,32.4631246219781,"georgia","laurens",32.5,-82.9,5.79310391951534
"444",13177,"Lee County","GA",-84.173830829819,31.7725591244277,"georgia","lee",31.8,-84.2,3.93295061037373
"445",13179,"Liberty County","GA",-81.4958699926786,31.8297343819767,"georgia","liberty",31.8,-81.5,3.33307624798259
"446",13181,"Lincoln County","GA",-82.4565531355882,33.7886903180595,"georgia","lincoln",33.8,-82.5,4.21184884172224
"447",13183,"Long County","GA",-81.760169452385,31.7644205305826,"georgia","long",31.8,-81.8,5.46659163882507
"448",13185,"Lowndes County","GA",-83.2787752916484,30.8281111867829,"georgia","lowndes",30.8,-83.3,3.72908341478938
"449",13187,"Lumpkin County","GA",-84.0113087799232,34.5651636458356,"georgia","lumpkin",34.6,-84,4.01391734536741
"450",13189,"McDuffie County","GA",-82.4930037560992,33.4833573543679,"georgia","mcduffie",33.5,-82.5,1.96320547046261
"451",13191,"McIntosh County","GA",-81.4250649796975,31.5161262164952,"georgia","mcintosh",31.5,-81.4,2.98065205476962
"452",13193,"Macon County","GA",-84.0575384562694,32.3458183236371,"georgia","macon",32.3,-84.1,6.4788326406494
"453",13195,"Madison County","GA",-83.2088594193984,34.1292285217305,"georgia","madison",34.1,-83.2,3.35448276550041
"454",13197,"Marion County","GA",-84.5339069652143,32.3456307170042,"georgia","marion",32.3,-84.5,5.99807446988331
"455",13199,"Meriwether County","GA",-84.6997758632034,33.0353327087655,"georgia","meriwether",33,-84.7,3.93328101499858
"456",13201,"Miller County","GA",-84.7424327649611,31.1538807664563,"georgia","miller",31.2,-84.7,6.53313495281602
"457",13205,"Mitchell County","GA",-84.2132028085114,31.2121887678997,"georgia","mitchell",31.2,-84.2,1.84881513241054
"458",13207,"Monroe County","GA",-83.9338455983515,33.0155033309577,"georgia","monroe",33,-83.9,3.60067862073538
"459",13209,"Montgomery County","GA",-82.5407902509955,32.1719083769649,"georgia","montgomery",32.2,-82.5,4.95457270828714
"460",13211,"Morgan County","GA",-83.4973928415298,33.587221600793,"georgia","morgan",33.6,-83.5,1.44271457355741
"461",13213,"Murray County","GA",-84.7631896075343,34.7801809866319,"georgia","murray",34.8,-84.8,4.02299087141721
"462",13215,"Muscogee County","GA",-84.8771519554467,32.5036975674402,"georgia","muscogee",32.5,-84.9,2.18363707441442
"463",13217,"Newton County","GA",-83.8564565108051,33.5556568899289,"georgia","newton",33.6,-83.9,6.37722989878597
"464",13219,"Oconee County","GA",-83.4443636848111,33.8301617559013,"georgia","oconee",33.8,-83.4,5.30229101352376
"465",13221,"Oglethorpe County","GA",-83.0917286929108,33.8772870501611,"georgia","oglethorpe",33.9,-83.1,2.64172602524441
"466",13223,"Paulding County","GA",-84.8776756785393,33.9109338412444,"georgia","paulding",33.9,-84.9,2.39433893188235
"467",13225,"Peach County","GA",-83.833660181432,32.5742911876978,"georgia","peach",32.6,-83.8,4.26195788343037
"468",13227,"Pickens County","GA",-84.4788051303947,34.456893090272,"georgia","pickens",34.5,-84.5,5.17781415407405
"469",13229,"Pierce County","GA",-82.2379519625521,31.353853449918,"georgia","pierce",31.4,-82.2,6.27616468987658
"470",13231,"Pike County","GA",-84.4051940564273,33.0798891407889,"georgia","pike",33.1,-84.4,2.29049618890844
"471",13233,"Polk County","GA",-85.1954557557093,33.9967652609194,"georgia","polk",34,-85.2,0.553621217309948
"472",13235,"Pulaski County","GA",-83.5173620667668,32.2279971288235,"georgia","pulaski",32.2,-83.5,3.51948326763527
"473",13237,"Putnam County","GA",-83.3775442952066,33.3215393709803,"georgia","putnam",33.3,-83.4,3.17984456149809
"474",13239,"Quitman County","GA",-85.0280754174457,31.8547055503822,"georgia","quitman",31.9,-85,5.69793839905386
"475",13241,"Rabun County","GA",-83.4143796656671,34.8788536974883,"georgia","rabun",34.9,-83.4,2.69584331902578
"476",13243,"Randolph County","GA",-84.7604237926954,31.7527107763644,"georgia","randolph",31.8,-84.8,6.45981920191151
"477",13245,"Richmond County","GA",-82.083290352771,33.3600063392566,"georgia","richmond",33.4,-82.1,4.71559876249641
"478",13247,"Rockdale County","GA",-84.0348969385313,33.6497302162164,"georgia","rockdale",33.6,-84,6.41186202258999
"479",13249,"Schley County","GA",-84.3391409892723,32.2546223439386,"georgia","schley",32.3,-84.3,6.25261860141036
"480",13251,"Screven County","GA",-81.617148725946,32.7569124294856,"georgia","screven",32.8,-81.6,5.05763997065864
"481",13253,"Seminole County","GA",-84.8801939466803,30.9336562080653,"georgia","seminole",30.9,-84.9,4.19677794327609
"482",13255,"Spalding County","GA",-84.2964564505487,33.253866860313,"georgia","spalding",33.3,-84.3,5.14593809834144
"483",13257,"Stephens County","GA",-83.2941230054986,34.5544017089124,"georgia","stephens",34.6,-83.3,5.10419316781286
"484",13259,"Stewart County","GA",-84.8507032287613,32.0705958040404,"georgia","stewart",32.1,-84.9,5.68555544986573
"485",13261,"Sumter County","GA",-84.2260813020494,32.0393234002906,"georgia","sumter",32,-84.2,5.02157891384964
"486",13263,"Talbot County","GA",-84.5412369850231,32.6975297960592,"georgia","talbot",32.7,-84.5,3.87277274775329
"487",13265,"Taliaferro County","GA",-82.8866807790021,33.5628863707954,"georgia","taliaferro",33.6,-82.9,4.31184824441205
"488",13267,"Tattnall County","GA",-82.0705640807405,32.0455077201734,"georgia","tattnall",32,-82.1,5.77796053826556
"489",13269,"Taylor County","GA",-84.2486932855649,32.5511761322016,"georgia","taylor",32.6,-84.2,7.09872765002622
"490",13271,"Telfair County","GA",-82.9638437130216,31.9214148487103,"georgia","telfair",31.9,-83,4.16611111157756
"491",13273,"Terrell County","GA",-84.4516945852268,31.7699056487172,"georgia","terrell",31.8,-84.5,5.66706755994363
"492",13275,"Thomas County","GA",-83.9364139790124,30.8587938154396,"georgia","thomas",30.9,-83.9,5.7574356257892
"493",13277,"Tift County","GA",-83.5499714331638,31.4515577807189,"georgia","tift",31.5,-83.5,7.18248041286934
"494",13279,"Toombs County","GA",-82.3476801443993,32.1045070178064,"georgia","toombs",32.1,-82.3,4.52525207053714
"495",13281,"Towns County","GA",-83.7498810428765,34.9076101146347,"georgia","towns",34.9,-83.7,4.63087359004647
"496",13283,"Treutlen County","GA",-82.5716311426541,32.3976041747971,"georgia","treutlen",32.4,-82.6,2.68032124355668
"497",13285,"Troup County","GA",-85.0345028250735,33.0241312852128,"georgia","troup",33,-85,4.1939699192558
"498",13287,"Turner County","GA",-83.6565018256506,31.7158831756687,"georgia","turner",31.7,-83.7,4.48388397517366
"499",13289,"Twiggs County","GA",-83.452031972079,32.6732774428534,"georgia","twiggs",32.7,-83.5,5.38952626137734
"500",13291,"Union County","GA",-84.0030220991238,34.8287900152849,"georgia","union",34.8,-84,3.21685414476644
"501",13293,"Upson County","GA",-84.3083178159847,32.8775929898152,"georgia","upson",32.9,-84.3,2.61321558726239
"502",13295,"Walker County","GA",-85.2984114908799,34.7231585263038,"georgia","walker",34.7,-85.3,2.5819427755426
"503",13297,"Walton County","GA",-83.7388831923821,33.7748197953422,"georgia","walton",33.8,-83.7,4.55958674077107
"504",13299,"Ware County","GA",-82.4573893413491,31.0302615642261,"georgia","ware",31,-82.5,5.27961386768992
"505",13301,"Warren County","GA",-82.6884595736745,33.4074037467511,"georgia","warren",33.4,-82.7,1.35336766774395
"506",13303,"Washington County","GA",-82.811653639701,32.9732772895956,"georgia","washington",33,-82.8,3.16792471127477
"507",13305,"Wayne County","GA",-81.9308399621337,31.5523482303945,"georgia","wayne",31.6,-81.9,6.05778618424706
"508",13307,"Webster County","GA",-84.5743221322365,32.0390762451255,"georgia","webster",32,-84.6,4.97981893432592
"509",13309,"Wheeler County","GA",-82.7455170782033,32.1115374642311,"georgia","wheeler",32.1,-82.7,4.47903247830662
"510",13311,"White County","GA",-83.7517318127185,34.6415760685497,"georgia","white",34.6,-83.8,6.40032296287013
"511",13313,"Whitfield County","GA",-84.9716047609595,34.7969896548028,"georgia","whitfield",34.8,-85,2.61718549958491
"512",13315,"Wilcox County","GA",-83.4709037963147,31.9694599946586,"georgia","wilcox",32,-83.5,4.37097267181399
"513",13317,"Wilkes County","GA",-82.7555577318702,33.7837747199547,"georgia","wilkes",33.8,-82.8,4.48968320218701
"514",13319,"Wilkinson County","GA",-83.1949913300053,32.8010533614078,"georgia","wilkinson",32.8,-83.2,0.484240906671122
"515",13321,"Worth County","GA",-83.877706928371,31.5463399431313,"georgia","worth",31.5,-83.9,5.57522454153521
"516",16001,"Ada County","ID",-116.235128989969,43.4466390592989,"idaho","ada",43.4,-116.2,5.91790275551869
"517",16003,"Adams County","ID",-116.444456051728,44.8928969253046,"idaho","adams",44.9,-116.4,3.5942403068688
"518",16005,"Bannock County","ID",-112.207724381465,42.6631692181518,"idaho","bannock",42.7,-112.2,4.14854885271471
"519",16007,"Bear Lake County","ID",-111.338147177102,42.2869274633115,"idaho","bear lake",42.3,-111.3,3.46163566797809
"520",16009,"Benewah County","ID",-116.64060205376,47.2049716813849,"idaho","benewah",47.2,-116.6,3.11980022204669
"521",16011,"Bingham County","ID",-112.406568637581,43.2145345007032,"idaho","bingham",43.2,-112.4,1.70356941987971
"522",16013,"Blaine County","ID",-113.982493874546,43.408616938898,"idaho","blaine",43.4,-114,1.71007968903959
"523",16015,"Boise County","ID",-115.718595288796,43.9838881436044,"idaho","boise",44,-115.7,2.33140725604832
"524",16017,"Bonner County","ID",-116.597887517172,48.2908136008189,"idaho","bonner",48.3,-116.6,1.03450809889327
"525",16019,"Bonneville County","ID",-111.63454569184,43.3871466640381,"idaho","bonneville",43.4,-111.6,3.13907084360683
"526",16021,"Boundary County","ID",-116.450215710223,48.757583127152,"idaho","boundary",48.8,-116.5,5.96923319770418
"527",16023,"Butte County","ID",-113.168739715422,43.7218230545827,"idaho","butte",43.7,-113.2,3.49673277978972
"528",16025,"Camas County","ID",-114.806880609225,43.4561228592102,"idaho","camas",43.5,-114.8,4.91587391923632
"529",16027,"Canyon County","ID",-116.706674679491,43.6199355600758,"idaho","canyon",43.6,-116.7,2.28371834066647
"530",16029,"Caribou County","ID",-111.562417991327,42.7786471289843,"idaho","caribou",42.8,-111.6,3.8831278586281
"531",16031,"Cassia County","ID",-113.618085240918,42.2888650253844,"idaho","cassia",42.3,-113.6,1.93711840203737
"532",16033,"Clark County","ID",-112.349108586978,44.2861715846117,"idaho","clark",44.3,-112.3,4.20461974565212
"533",16035,"Clearwater County","ID",-115.623795517511,46.6620045588849,"idaho","clearwater",46.7,-115.6,4.60341439801346
"534",16037,"Custer County","ID",-114.27579862463,44.2409784759119,"idaho","custer",44.2,-114.3,4.95349173525444
"535",16039,"Elmore County","ID",-115.466396424406,43.355139584582,"idaho","elmore",43.4,-115.5,5.68618387619921
"536",16041,"Franklin County","ID",-111.819726329649,42.1800465270181,"idaho","franklin",42.2,-111.8,2.75326887725423
"537",16043,"Fremont County","ID",-111.487363665581,44.2314091925945,"idaho","fremont",44.2,-111.5,3.63882521345859
"538",16045,"Gem County","ID",-116.381521986421,44.0650025864299,"idaho","gem",44.1,-116.4,4.16635540342689
"539",16047,"Gooding County","ID",-114.816473695959,42.9720976873395,"idaho","gooding",43,-114.8,3.38328454727297
"540",16049,"Idaho County","ID",-115.460332249638,45.8317211441814,"idaho","idaho",45.8,-115.5,4.68421164787706
"541",16051,"Jefferson County","ID",-112.313136614161,43.8207137904923,"idaho","jefferson",43.8,-112.3,2.5358335046823
"542",16053,"Jerome County","ID",-114.277652841463,42.692177243864,"idaho","jerome",42.7,-114.3,2.02539793534719
"543",16055,"Kootenai County","ID",-116.685073855393,47.6590700914002,"idaho","kootenai",47.7,-116.7,4.69165036501178
"544",16057,"Latah County","ID",-116.695393548784,46.8056757964305,"idaho","latah",46.8,-116.7,0.72274230773237
"545",16059,"Lemhi County","ID",-113.927660858582,44.9453109505748,"idaho","lemhi",44.9,-113.9,5.49506606099795
"546",16061,"Lewis County","ID",-116.413719009815,46.2297084698615,"idaho","lewis",46.2,-116.4,3.47192655768036
"547",16063,"Lincoln County","ID",-114.14297598751,43.0003296383446,"idaho","lincoln",43,-114.1,3.49852979486592
"548",16065,"Madison County","ID",-111.659485191576,43.7789849138237,"idaho","madison",43.8,-111.7,4.00884173289055
"549",16067,"Minidoka County","ID",-113.64091644672,42.8573982304472,"idaho","minidoka",42.9,-113.6,5.79906917307578
"550",16069,"Nez Perce County","ID",-116.733199072243,46.319062504209,"idaho","nez perce",46.3,-116.7,3.31988207254588
"551",16071,"Oneida County","ID",-112.550196642879,42.1971324913515,"idaho","oneida",42.2,-112.6,4.12007049225564
"552",16073,"Owyhee County","ID",-116.177049797487,42.5887106262708,"idaho","owyhee",42.6,-116.2,2.26168843312953
"553",16075,"Payette County","ID",-116.75184549523,44.0031958885425,"idaho","payette",44,-116.8,3.87256292217709
"554",16077,"Power County","ID",-112.841912312476,42.6936745130233,"idaho","power",42.7,-112.8,3.50035859225093
"555",16079,"Shoshone County","ID",-115.876256949631,47.3389590273287,"idaho","shoshone",47.3,-115.9,4.69235336854328
"556",16081,"Teton County","ID",-111.219807369959,43.7541283263071,"idaho","teton",43.8,-111.2,5.34883016247188
"557",16083,"Twin Falls County","ID",-114.688532353649,42.3660100982263,"idaho","twin falls",42.4,-114.7,3.8995690615359
"558",16085,"Valley County","ID",-115.561297898562,44.7603213759246,"idaho","valley",44.8,-115.6,5.37252820423655
"559",16087,"Washington County","ID",-116.774689674725,44.4512281684556,"idaho","washington",44.5,-116.8,5.78961867150644
"560",17001,"Adams County","IL",-91.1867527247793,39.9883684517343,"illinois","adams",40,-91.2,1.7190926706045
"561",17003,"Alexander County","IL",-89.3414084445977,37.2066415939774,"illinois","alexander",37.2,-89.3,3.74624225928671
"562",17005,"Bond County","IL",-89.4458136114285,38.8858767706313,"illinois","bond",38.9,-89.4,4.26996552170102
"563",17007,"Boone County","IL",-88.8209723247141,42.3298235282731,"illinois","boone",42.3,-88.8,3.7425040651273
"564",17009,"Brown County","IL",-90.7523208959451,39.9595412659568,"illinois","brown",40,-90.8,6.06772039328156
"565",17011,"Bureau County","IL",-89.5193781352271,41.4084909688473,"illinois","bureau",41.4,-89.5,1.87377907903517
"566",17013,"Calhoun County","IL",-90.6763830746176,39.1621432554811,"illinois","calhoun",39.2,-90.7,4.68160860071165
"567",17015,"Carroll County","IL",-89.9327135962978,42.0751169860565,"illinois","carroll",42.1,-89.9,3.87017933866375
"568",17017,"Cass County","IL",-90.2488919020414,39.9682049581874,"illinois","cass",40,-90.2,5.46898496424413
"569",17019,"Champaign County","IL",-88.2054223087829,40.1304186951347,"illinois","champaign",40.1,-88.2,3.41754052576858
"570",17021,"Christian County","IL",-89.2817918926454,39.545989046398,"illinois","christian",39.5,-89.3,5.35259818777215
"571",17023,"Clark County","IL",-87.7960964502388,39.3328950408126,"illinois","clark",39.3,-87.8,3.67724765095052
"572",17025,"Clay County","IL",-88.4955973454779,38.7486984100802,"illinois","clay",38.7,-88.5,5.43446505404836
"573",17027,"Clinton County","IL",-89.4268264375915,38.6009893280571,"illinois","clinton",38.6,-89.4,2.33697817811942
"574",17029,"Coles County","IL",-88.2268028520681,39.51937042573,"illinois","coles",39.5,-88.2,3.15338685756311
"575",17031,"Cook County","IL",-87.8211801765316,41.842959481552,"illinois","cook",41.8,-87.8,5.09522954023302
"576",17033,"Crawford County","IL",-87.7640022100396,39.0026980897654,"illinois","crawford",39,-87.8,3.12756231309065
"577",17035,"Cumberland County","IL",-88.2458836886489,39.2748327749018,"illinois","cumberland",39.3,-88.2,4.84445072406519
"578",17037,"DeKalb County","IL",-88.7641251446158,41.8983191223035,"illinois","de kalb",41.9,-88.8,2.97738449722445
"579",17039,"De Witt County","IL",-88.90048116816,40.1721452017022,"illinois","de witt",40.2,-88.9,3.10114376874008
"580",17041,"Douglas County","IL",-88.2231412398938,39.7645528518528,"illinois","douglas",39.8,-88.2,4.41416464213462
"581",17043,"DuPage County","IL",-88.0958260482485,41.8492869675037,"illinois","du page",41.8,-88.1,5.49763133422646
"582",17045,"Edgar County","IL",-87.7475108533789,39.6725599227331,"illinois","edgar",39.7,-87.7,5.08804311356577
"583",17047,"Edwards County","IL",-88.0541607242602,38.4074616931229,"illinois","edwards",38.4,-88.1,4.08467297514087
"584",17049,"Effingham County","IL",-88.5917681537066,39.0594808380274,"illinois","effingham",39.1,-88.6,4.56623428455315
"585",17051,"Fayette County","IL",-89.0352258516978,39.0004189039548,"illinois","fayette",39,-89,3.04778873649066
"586",17053,"Ford County","IL",-88.2211012933725,40.5874085444007,"illinois","ford",40.6,-88.2,2.26761272489475
"587",17055,"Franklin County","IL",-88.9280902671406,37.9896379871525,"illinois","franklin",38,-88.9,2.72137085341712
"588",17057,"Fulton County","IL",-90.2076440650142,40.4724173373954,"illinois","fulton",40.5,-90.2,3.13773990250681
"589",17059,"Gallatin County","IL",-88.2339683447712,37.764736089141,"illinois","gallatin",37.8,-88.2,4.93299226463121
"590",17061,"Greene County","IL",-90.3981887350999,39.3583998571641,"illinois","greene",39.4,-90.4,4.63368068467096
"591",17063,"Grundy County","IL",-88.4243295271628,41.286107452451,"illinois","grundy",41.3,-88.4,2.5562362990484
"592",17065,"Hamilton County","IL",-88.5448989868164,38.0783881806491,"illinois","hamilton",38.1,-88.5,4.61105369915883
"593",17067,"Hancock County","IL",-91.1608295388019,40.4076038423116,"illinois","hancock",40.4,-91.2,3.42760407398164
"594",17069,"Hardin County","IL",-88.2650748627786,37.527967492084,"illinois","hardin",37.5,-88.3,4.38136382912566
"595",17071,"Henderson County","IL",-90.9301886555699,40.8138123077726,"illinois","henderson",40.8,-90.9,2.97276735517974
"596",17073,"Henry County","IL",-90.1233998434255,41.3509876468052,"illinois","henry",41.4,-90.1,5.79558968593106
"597",17075,"Iroquois County","IL",-87.8262634317128,40.747265550946,"illinois","iroquois",40.7,-87.8,5.70940228925645
"598",17077,"Jackson County","IL",-89.3829685512741,37.7874459140245,"illinois","jackson",37.8,-89.4,2.04837175853684
"599",17079,"Jasper County","IL",-88.1606473855578,39.0130321156987,"illinois","jasper",39,-88.2,3.70134723476638
"600",17081,"Jefferson County","IL",-88.9263828326037,38.2940109875492,"illinois","jefferson",38.3,-88.9,2.39989524198156
"601",17083,"Jersey County","IL",-90.3627517287962,39.0855579835518,"illinois","jersey",39.1,-90.4,3.59685016576316
"602",17085,"Jo Daviess County","IL",-90.2080579453879,42.3690907160373,"illinois","jo daviess",42.4,-90.2,3.50399384051507
"603",17087,"Johnson County","IL",-88.8839687978292,37.4686584713611,"illinois","johnson",37.5,-88.9,3.76515694023584
"604",17089,"Kane County","IL",-88.4287590485046,41.9424401488737,"illinois","kane",41.9,-88.4,5.29104961486047
"605",17091,"Kankakee County","IL",-87.8637410845451,41.1388911185437,"illinois","kankakee",41.1,-87.9,5.29032590564817
"606",17093,"Kendall County","IL",-88.4320420105831,41.5942514252727,"illinois","kendall",41.6,-88.4,2.74358129858161
"607",17095,"Knox County","IL",-90.2162414757902,40.9287374507834,"illinois","knox",40.9,-90.2,3.47802785074673
"608",17097,"Lake County","IL",-88.0067494344511,42.3310322002632,"illinois","lake",42.3,-88,3.49896391068782
"609",17099,"LaSalle County","IL",-88.8870842507339,41.3444398803046,"illinois","la salle",41.3,-88.9,5.0634690711785
"610",17101,"Lawrence County","IL",-87.7338751867918,38.7195965741324,"illinois","lawrence",38.7,-87.7,3.66210277994053
"611",17103,"Lee County","IL",-89.2969743970155,41.7494977344916,"illinois","lee",41.7,-89.3,5.51566275277136
"612",17105,"Livingston County","IL",-88.5597564552205,40.8859316916843,"illinois","livingston",40.9,-88.6,3.73162128472679
"613",17107,"Logan County","IL",-89.3630588650574,40.1230821140385,"illinois","logan",40.1,-89.4,4.06092143601877
"614",17109,"McDonough County","IL",-90.6779135579987,40.4496998220814,"illinois","mcdonough",40.4,-90.7,5.84074776881964
"615",17111,"McHenry County","IL",-88.4528733211778,42.3304174268682,"illinois","mchenry",42.3,-88.5,5.14922724230021
"616",17113,"McLean County","IL",-88.8501427529536,40.4848538637841,"illinois","mclean",40.5,-88.9,4.54461538997652
"617",17115,"Macon County","IL",-88.9628473576935,39.858966316238,"illinois","macon",39.9,-89,5.56235641459178
"618",17117,"Macoupin County","IL",-89.9257920881275,39.2662237372283,"illinois","macoupin",39.3,-89.9,4.36781862835246
"619",17119,"Madison County","IL",-89.9057099028811,38.8311274100063,"illinois","madison",38.8,-89.9,3.50046053162504
"620",17121,"Marion County","IL",-88.9245933058521,38.6490411517704,"illinois","marion",38.6,-88.9,5.86362143631065
"621",17123,"Marshall County","IL",-89.341650874431,41.0330032527906,"illinois","marshall",41,-89.3,5.07379399138715
"622",17125,"Mason County","IL",-89.9161964482047,40.2370173608207,"illinois","mason",40.2,-89.9,4.34473641979696
"623",17127,"Massac County","IL",-88.7155903332861,37.2315219096481,"illinois","massac",37.2,-88.7,3.77090211148235
"624",17129,"Menard County","IL",-89.798534567956,40.0271096042789,"illinois","menard",40,-89.8,3.02036969963005
"625",17131,"Mercer County","IL",-90.7352262438292,41.2027113916917,"illinois","mercer",41.2,-90.7,2.96480700546692
"626",17133,"Monroe County","IL",-90.1881242559626,38.2750592129638,"illinois","monroe",38.3,-90.2,2.96426080892879
"627",17135,"Montgomery County","IL",-89.4802481482933,39.231011999468,"illinois","montgomery",39.2,-89.5,3.84960277940734
"628",17137,"Morgan County","IL",-90.1999638178023,39.7116894616883,"illinois","morgan",39.7,-90.2,1.30118659211528
"629",17139,"Moultrie County","IL",-88.6240490045098,39.6383600378869,"illinois","moultrie",39.6,-88.6,4.74201290135406
"630",17141,"Ogle County","IL",-89.3211892302828,42.0460820953648,"illinois","ogle",42,-89.3,5.42118260201029
"631",17143,"Peoria County","IL",-89.7623937043214,40.7860525272082,"illinois","peoria",40.8,-89.8,3.52826476735436
"632",17145,"Perry County","IL",-89.3677494935962,38.08625620123,"illinois","perry",38.1,-89.4,3.21253415017671
"633",17147,"Piatt County","IL",-88.5955648432976,40.008338941052,"illinois","piatt",40,-88.6,1.0025647886405
"634",17149,"Pike County","IL",-90.8928103956254,39.6187139240473,"illinois","pike",39.6,-90.9,2.17257268007328
"635",17151,"Pope County","IL",-88.5615509389009,37.4252243911794,"illinois","pope",37.4,-88.6,4.40963073050596
"636",17153,"Pulaski County","IL",-89.132044554726,37.2333049150258,"illinois","pulaski",37.2,-89.1,4.6702849375916
"637",17155,"Putnam County","IL",-89.2899045502393,41.2051535002759,"illinois","putnam",41.2,-89.3,1.02090007348794
"638",17157,"Randolph County","IL",-89.8238522124539,38.0504158199885,"illinois","randolph",38.1,-89.8,5.90240855238702
"639",17159,"Richland County","IL",-88.0920390454969,38.7122105392026,"illinois","richland",38.7,-88.1,1.5252486855935
"640",17161,"Rock Island County","IL",-90.5652772944068,41.4701368470775,"illinois","rock island",41.5,-90.6,4.40895118534713
"641",17163,"St. Clair County","IL",-89.9316315253049,38.4649311729404,"illinois","st clair",38.5,-89.9,4.77918831521632
"642",17165,"Saline County","IL",-88.544711756111,37.7548966383865,"illinois","saline",37.8,-88.5,6.37848048487183
"643",17167,"Sangamon County","IL",-89.6578020712197,39.7587979862081,"illinois","sangamon",39.8,-89.7,5.8374691049606
"644",17169,"Schuyler County","IL",-90.6118748512987,40.1554259964023,"illinois","schuyler",40.2,-90.6,5.06368311479016
"645",17171,"Scott County","IL",-90.4828043290599,39.643637133693,"illinois","scott",39.6,-90.5,5.07667044397082
"646",17173,"Shelby County","IL",-88.8103286656765,39.3893140342144,"illinois","shelby",39.4,-88.8,1.48553837967785
"647",17175,"Stark County","IL",-89.7968083336788,41.093283674814,"illinois","stark",41.1,-89.8,0.793650740671284
"648",17177,"Stephenson County","IL",-89.6555976693143,42.3542014688127,"illinois","stephenson",42.4,-89.7,6.27169399476616
"649",17179,"Tazewell County","IL",-89.5130968202909,40.5082077171247,"illinois","tazewell",40.5,-89.5,1.43655713113824
"650",17181,"Union County","IL",-89.2580276082873,37.4767046425748,"illinois","union",37.5,-89.3,4.52345442109959
"651",17183,"Vermilion County","IL",-87.7347007908011,40.1734049754877,"illinois","vermilion",40.2,-87.7,4.17944481917769
"652",17185,"Wabash County","IL",-87.844637276631,38.4488956843219,"illinois","wabash",38.4,-87.8,6.69234396946295
"653",17187,"Warren County","IL",-90.6207321791529,40.8439675969479,"illinois","warren",40.8,-90.6,5.19662363674163
"654",17189,"Washington County","IL",-89.4122532247255,38.3503806190842,"illinois","washington",38.4,-89.4,5.62642982722175
"655",17191,"Wayne County","IL",-88.431856462303,38.4222269124628,"illinois","wayne",38.4,-88.4,3.72097138587028
"656",17193,"White County","IL",-88.1864738670176,38.0856947531961,"illinois","white",38.1,-88.2,1.98549156972584
"657",17195,"Whiteside County","IL",-89.916390113989,41.761045468371,"illinois","whiteside",41.8,-89.9,4.54490133458366
"658",17197,"Will County","IL",-87.9839131938897,41.4430136492395,"illinois","will",41.4,-88,4.97282521213373
"659",17199,"Williamson County","IL",-88.9303547590096,37.7339042336427,"illinois","williamson",37.7,-88.9,4.62511895440177
"660",17201,"Winnebago County","IL",-89.1591027861629,42.3395276261269,"illinois","winnebago",42.3,-89.2,5.54082401995143
"661",17203,"Woodford County","IL",-89.2085214850243,40.7866072200192,"illinois","woodford",40.8,-89.2,1.65431091193311
"662",18001,"Adams County","IN",-84.9513324226576,40.7438672191787,"indiana","adams",40.7,-85,6.38000098133339
"663",18003,"Allen County","IN",-85.076317654565,41.0967771160783,"indiana","allen",41.1,-85.1,2.01928153244059
"664",18005,"Bartholomew County","IN",-85.8954246323886,39.2051989937184,"indiana","bartholomew",39.2,-85.9,0.700152982101809
"665",18007,"Benton County","IN",-87.3087757230511,40.6023667058098,"indiana","benton",40.6,-87.3,0.788155963904768
"666",18009,"Blackford County","IN",-85.3377760795409,40.4705021311969,"indiana","blackford",40.5,-85.3,4.58462696112315
"667",18011,"Boone County","IN",-86.4611346862078,40.04740620445,"indiana","boone",40,-86.5,6.23104601815748
"668",18013,"Brown County","IN",-86.2167143112894,39.195356462708,"indiana","brown",39.2,-86.2,1.53082359189327
"669",18015,"Carroll County","IN",-86.5530921438563,40.5790062080841,"indiana","carroll",40.6,-86.6,4.60314940464826
"670",18017,"Cass County","IN",-86.3489537682738,40.760944514375,"indiana","cass",40.8,-86.3,5.99478157974291
"671",18019,"Clark County","IN",-85.7127834628813,38.4820477935838,"indiana","clark",38.5,-85.7,2.28734985808217
"672",18021,"Clay County","IN",-87.1175448485965,39.3923166032464,"indiana","clay",39.4,-87.1,1.73442779827444
"673",18023,"Clinton County","IN",-86.468616860021,40.297220650188,"indiana","clinton",40.3,-86.5,2.68237206203439
"674",18025,"Crawford County","IN",-86.4541105638974,38.2987849763576,"indiana","crawford",38.3,-86.5,4.01125439619244
"675",18027,"Daviess County","IN",-87.0706447307602,38.7053647297882,"indiana","daviess",38.7,-87.1,2.61969419139722
"676",18029,"Dearborn County","IN",-84.9835224167691,39.1466240557694,"indiana","dearborn",39.1,-85,5.38187258566127
"677",18031,"Decatur County","IN",-85.5064216666068,39.3042233571018,"indiana","decatur",39.3,-85.5,0.726022259289629
"678",18033,"DeKalb County","IN",-85.0041710326174,41.4097206264326,"indiana","de kalb",41.4,-85,1.13659571972899
"679",18035,"Delaware County","IN",-85.4102341277222,40.2259304348231,"indiana","delaware",40.2,-85.4,3.01488763914476
"680",18037,"Dubois County","IN",-86.8822505957553,38.3628901711726,"indiana","dubois",38.4,-86.9,4.41183380896728
"681",18039,"Elkhart County","IN",-85.8617102662317,41.6000599348255,"indiana","elkhart",41.6,-85.9,3.18690763578646
"682",18041,"Fayette County","IN",-85.1827663450751,39.633525061964,"indiana","fayette",39.6,-85.2,4.01448695942939
"683",18043,"Floyd County","IN",-85.9037849520563,38.3203890477494,"indiana","floyd",38.3,-85.9,2.29381177178512
"684",18045,"Fountain County","IN",-87.2388398116465,40.1256242668255,"indiana","fountain",40.1,-87.2,4.36628321806783
"685",18047,"Franklin County","IN",-85.0623411690642,39.4141769961838,"indiana","franklin",39.4,-85.1,3.60350391258737
"686",18049,"Fulton County","IN",-86.2667708657986,41.0488385428512,"indiana","fulton",41,-86.3,6.11061763597789
"687",18051,"Gibson County","IN",-87.5840401101865,38.3156067155849,"indiana","gibson",38.3,-87.6,2.22793064654091
"688",18053,"Grant County","IN",-85.6608882352592,40.5142542774589,"indiana","grant",40.5,-85.7,3.67196561798152
"689",18055,"Greene County","IN",-86.9557587328926,39.0389608138709,"indiana","greene",39,-87,5.78369886918452
"690",18057,"Hamilton County","IN",-86.0535997430033,40.0658797905218,"indiana","hamilton",40.1,-86.1,5.48158785200615
"691",18059,"Hancock County","IN",-85.7773736606507,39.8115204219394,"indiana","hancock",39.8,-85.8,2.3205382234691
"692",18061,"Harrison County","IN",-86.1128632754575,38.2021533988106,"indiana","harrison",38.2,-86.1,1.1499877717089
"693",18063,"Hendricks County","IN",-86.4987016169928,39.7675718404925,"indiana","hendricks",39.8,-86.5,3.61150963517426
"694",18065,"Henry County","IN",-85.4085102385866,39.9262497256718,"indiana","henry",39.9,-85.4,3.01105844735542
"695",18067,"Howard County","IN",-86.1167324060929,40.4793362121609,"indiana","howard",40.5,-86.1,2.70121124471874
"696",18069,"Huntington County","IN",-85.5000574365909,40.8337695888945,"indiana","huntington",40.8,-85.5,3.75930148427451
"697",18071,"Jackson County","IN",-86.0312469980221,38.9096949479015,"indiana","jackson",38.9,-86,2.9140100808878
"698",18073,"Jasper County","IN",-87.1098680514217,41.0224435822653,"indiana","jasper",41,-87.1,2.63216431181651
"699",18075,"Jay County","IN",-85.0165812461178,40.4375659554281,"indiana","jay",40.4,-85,4.4114622262486
"700",18077,"Jefferson County","IN",-85.4364487247991,38.7893953987772,"indiana","jefferson",38.8,-85.4,3.37598354750534
"701",18079,"Jennings County","IN",-85.6320074386808,38.9962937331636,"indiana","jennings",39,-85.6,2.79912898394521
"702",18081,"Johnson County","IN",-86.096864098936,39.484065751887,"indiana","johnson",39.5,-86.1,1.79421175668839
"703",18083,"Knox County","IN",-87.4191679361684,38.6972174084874,"indiana","knox",38.7,-87.4,1.69438787634012
"704",18085,"Kosciusko County","IN",-85.8683925373824,41.2404937293679,"indiana","kosciusko",41.2,-85.9,5.22691186042629
"705",18087,"LaGrange County","IN",-85.4360789950223,41.6597812666518,"indiana","lagrange",41.7,-85.4,5.3894739158181
"706",18089,"Lake County","IN",-87.3832653049222,41.4228184557789,"indiana","lake",41.4,-87.4,2.898621173057
"707",18091,"LaPorte County","IN",-86.732441644167,41.5519852361386,"indiana","la porte",41.6,-86.7,5.988330066523
"708",18093,"Lawrence County","IN",-86.4722841700292,38.8399647969208,"indiana","lawrence",38.8,-86.5,5.05682700958298
"709",18095,"Madison County","IN",-85.7292340344193,40.151413217872,"indiana","madison",40.2,-85.7,5.95248871184171
"710",18097,"Marion County","IN",-86.1338751131538,39.775815711758,"indiana","marion",39.8,-86.1,3.95485662433651
"711",18099,"Marshall County","IN",-86.2577489079112,41.3252067509134,"indiana","marshall",41.3,-86.3,4.51082293695133
"712",18101,"Martin County","IN",-86.7946563028591,38.7085091201781,"indiana","martin",38.7,-86.8,1.05432436707225
"713",18103,"Miami County","IN",-86.0478023097897,40.7723384925035,"indiana","miami",40.8,-86,5.07096273248021
"714",18105,"Monroe County","IN",-86.5123945387877,39.1597138627167,"indiana","monroe",39.2,-86.5,4.61048828271826
"715",18107,"Montgomery County","IN",-86.8820477823168,40.0408147428828,"indiana","montgomery",40,-86.9,4.79414233389152
"716",18109,"Morgan County","IN",-86.4356953042337,39.481149367789,"indiana","morgan",39.5,-86.4,3.71621916881947
"717",18111,"Newton County","IN",-87.3969087411612,40.9525848109742,"indiana","newton",41,-87.4,5.28459954511771
"718",18113,"Noble County","IN",-85.4325344566584,41.4127531950127,"indiana","noble",41.4,-85.4,3.06541029351442
"719",18115,"Ohio County","IN",-84.9776901055719,38.950738132301,"indiana","ohio",39,-85,5.81376483516287
"720",18117,"Orange County","IN",-86.4900187566691,38.5424758445378,"indiana","orange",38.5,-86.5,4.80763528962441
"721",18119,"Owen County","IN",-86.8285486727066,39.3169433422757,"indiana","owen",39.3,-86.8,3.09992960343677
"722",18121,"Parke County","IN",-87.2034035345951,39.7707722452268,"indiana","parke",39.8,-87.2,3.26644198234692
"723",18123,"Perry County","IN",-86.6371715038533,38.0865680095581,"indiana","perry",38.1,-86.6,3.58287498918457
"724",18125,"Pike County","IN",-87.2381242663021,38.4007669863952,"indiana","pike",38.4,-87.2,3.32598365913709
"725",18127,"Porter County","IN",-87.0637260109958,41.4630265674777,"indiana","porter",41.5,-87.1,5.1083198873835
"726",18129,"Posey County","IN",-87.8731806058708,38.0253357976028,"indiana","posey",38,-87.9,3.6721764628835
"727",18131,"Pulaski County","IN",-86.6901514851712,41.0381021430548,"indiana","pulaski",41,-86.7,4.32161184027786
"728",18133,"Putnam County","IN",-86.8388356313935,39.6656469741392,"indiana","putnam",39.7,-86.8,5.06963451720424
"729",18135,"Randolph County","IN",-85.0228757169046,40.161632337937,"indiana","randolph",40.2,-85,4.69339774730192
"730",18137,"Ripley County","IN",-85.2753725965643,39.1010711596597,"indiana","ripley",39.1,-85.3,2.12981839055308
"731",18139,"Rush County","IN",-85.4637782350021,39.6157796205147,"indiana","rush",39.6,-85.5,3.56882526160763
"732",18141,"St. Joseph County","IN",-86.2868917337444,41.621102641209,"indiana","st joseph",41.6,-86.3,2.58985083387389
"733",18143,"Scott County","IN",-85.7424542601237,38.6900796694206,"indiana","scott",38.7,-85.7,3.84933387348193
"734",18145,"Shelby County","IN",-85.7911139274909,39.5189047934394,"indiana","shelby",39.5,-85.8,2.23822468113282
"735",18147,"Spencer County","IN",-87.0123921868512,38.0145009622009,"indiana","spencer",38,-87,1.94607904374389
"736",18149,"Starke County","IN",-86.642797344335,41.2796807510235,"indiana","starke",41.3,-86.6,4.23398548040318
"737",18151,"Steuben County","IN",-85.0044231617812,41.6595677788832,"indiana","steuben",41.7,-85,4.51597747344806
"738",18153,"Sullivan County","IN",-87.4185267224808,39.0963389745014,"indiana","sullivan",39.1,-87.4,1.65208845453138
"739",18155,"Switzerland County","IN",-85.0342798206836,38.8275528929297,"indiana","switzerland",38.8,-85,4.27189817165542
"740",18157,"Tippecanoe County","IN",-86.8858051157992,40.3867757937431,"indiana","tippecanoe",40.4,-86.9,1.90124248905656
"741",18159,"Tipton County","IN",-86.052787193301,40.3076956963866,"indiana","tipton",40.3,-86.1,4.0991856469564
"742",18161,"Union County","IN",-84.9336256575099,39.6308882497788,"indiana","union",39.6,-84.9,4.48798362319292
"743",18163,"Vanderburgh County","IN",-87.5902953113871,38.0252926005304,"indiana","vanderburgh",38,-87.6,2.94155670029484
"744",18165,"Vermillion County","IN",-87.4636526266943,39.853725820038,"indiana","vermillion",39.9,-87.5,6.01486694039887
"745",18167,"Vigo County","IN",-87.3922018305474,39.4335409202212,"indiana","vigo",39.4,-87.4,3.79324864659167
"746",18169,"Wabash County","IN",-85.7935824689104,40.8423510770921,"indiana","wabash",40.8,-85.8,4.74536356993454
"747",18171,"Warren County","IN",-87.3571241977305,40.3487959145558,"indiana","warren",40.3,-87.4,6.53790472555761
"748",18173,"Warrick County","IN",-87.2782701589586,38.0934793125907,"indiana","warrick",38.1,-87.3,2.03628323124514
"749",18175,"Washington County","IN",-86.1000173583787,38.6035829317287,"indiana","washington",38.6,-86.1,0.399021196963205
"750",18177,"Wayne County","IN",-85.0198687053166,39.8679360300427,"indiana","wayne",39.9,-85,3.95245476146208
"751",18179,"Wells County","IN",-85.2402745230614,40.7286239318933,"indiana","wells",40.7,-85.2,4.65764635393914
"752",18181,"White County","IN",-86.8619490437092,40.7438262108914,"indiana","white",40.7,-86.9,5.83981593047767
"753",18183,"Whitley County","IN",-85.5179312527927,41.1505194963413,"indiana","whitley",41.2,-85.5,5.70946416111965
"754",19001,"Adair County","IA",-94.4778747558594,41.3331756591797,"iowa","adair",41.3,-94.5,4.13057124588005
"755",19003,"Adams County","IA",-94.7090899776106,41.0316634197192,"iowa","adams",41,-94.7,3.60628231111417
"756",19005,"Allamakee County","IA",-91.3706683314248,43.2904251383554,"iowa","allamakee",43.3,-91.4,2.60409312559089
"757",19007,"Appanoose County","IA",-92.8664369911122,40.7547889449789,"iowa","appanoose",40.8,-92.9,5.77327864008451
"758",19009,"Audubon County","IA",-94.9168788965391,41.6842048224936,"iowa","audubon",41.7,-94.9,2.24988465802337
"759",19011,"Benton County","IA",-92.0528327160299,42.087060051405,"iowa","benton",42.1,-92.1,4.15440810142605
"760",19013,"Black Hawk County","IA",-92.3043012992388,42.4740628425674,"iowa","black hawk",42.5,-92.3,2.90894320940329
"761",19015,"Boone County","IA",-93.9342862118409,42.0357686031983,"iowa","boone",42,-93.9,4.88852299797163
"762",19017,"Bremer County","IA",-92.3149604797363,42.7770290374756,"iowa","bremer",42.8,-92.3,2.83452964471072
"763",19019,"Buchanan County","IA",-91.8305719479303,42.4735508629104,"iowa","buchanan",42.5,-91.8,3.8694204802693
"764",19021,"Buena Vista County","IA",-95.1584158712062,42.7397870966165,"iowa","buena vista",42.7,-95.2,5.58471504293328
"765",19023,"Butler County","IA",-92.7876510620117,42.7369232177734,"iowa","butler",42.7,-92.8,4.23221885096594
"766",19025,"Calhoun County","IA",-94.6477075825206,42.384063384127,"iowa","calhoun",42.4,-94.6,4.30443706252754
"767",19027,"Carroll County","IA",-94.8675581605366,42.0361503414992,"iowa","carroll",42,-94.9,4.83636941212672
"768",19029,"Cass County","IA",-94.9382957864475,41.3313750546309,"iowa","cass",41.3,-94.9,4.73864819834712
"769",19031,"Cedar County","IA",-91.1142931533019,41.7790441357705,"iowa","cedar",41.8,-91.1,2.61681264363292
"770",19033,"Cerro Gordo County","IA",-93.2617672242431,43.086778292817,"iowa","cerro gordo",43.1,-93.3,3.43786985601009
"771",19035,"Cherokee County","IA",-95.6271199433466,42.7361970725585,"iowa","cherokee",42.7,-95.6,4.59926143439205
"772",19037,"Chickasaw County","IA",-92.3156881010058,43.0652925115153,"iowa","chickasaw",43.1,-92.3,4.06887039038731
"773",19039,"Clarke County","IA",-93.7903814358405,41.0338110942001,"iowa","clarke",41,-93.8,3.8493464854194
"774",19041,"Clay County","IA",-95.1589123019542,43.0903718413496,"iowa","clay",43.1,-95.2,3.50857734512034
"775",19043,"Clayton County","IA",-91.3299613899347,42.8461270287132,"iowa","clayton",42.8,-91.3,5.68828825543262
"776",19045,"Clinton County","IA",-90.5214303793417,41.9071320927296,"iowa","clinton",41.9,-90.5,1.94489866716609
"777",19047,"Crawford County","IA",-95.3888778686523,42.0321846008301,"iowa","crawford",42,-95.4,3.69884890763425
"778",19049,"Dallas County","IA",-94.0478156353998,41.6878123303349,"iowa","dallas",41.7,-94,4.19979875955821
"779",19051,"Davis County","IA",-92.4023532039527,40.7569769387475,"iowa","davis",40.8,-92.4,4.79334793515626
"780",19053,"Decatur County","IA",-93.7917583570349,40.7519455253711,"iowa","decatur",40.8,-93.8,5.39411080163759
"781",19055,"Delaware County","IA",-91.3556604430765,42.4740448006799,"iowa","delaware",42.5,-91.4,4.64683031194607
"782",19057,"Des Moines County","IA",-91.1729281172852,40.9341008534914,"iowa","des moines",40.9,-91.2,4.42715047641077
"783",19059,"Dickinson County","IA",-95.1553945212923,43.3846062555656,"iowa","dickinson",43.4,-95.2,3.99544434911224
"784",19061,"Dubuque County","IA",-90.8751826987117,42.4698257171736,"iowa","dubuque",42.5,-90.9,3.92828944549687
"785",19063,"Emmet County","IA",-94.6855745998141,43.3841171186638,"iowa","emmet",43.4,-94.7,2.11911885172338
"786",19065,"Fayette County","IA",-91.8388315767543,42.8654494225338,"iowa","fayette",42.9,-91.8,4.9833019405267
"787",19067,"Floyd County","IA",-92.7890805870129,43.0660555084948,"iowa","floyd",43.1,-92.8,3.88118218657544
"788",19069,"Franklin County","IA",-93.2616257695307,42.736922258886,"iowa","franklin",42.7,-93.3,5.17073782641325
"789",19071,"Fremont County","IA",-95.6088676595485,40.7594307723156,"iowa","fremont",40.8,-95.6,4.57742058827728
"790",19073,"Greene County","IA",-94.4005241394043,42.037914276123,"iowa","greene",42,-94.4,4.2208257174601
"791",19075,"Grundy County","IA",-92.785618163917,42.4089862416747,"iowa","grundy",42.4,-92.8,1.54773848935043
"792",19077,"Guthrie County","IA",-94.5100013802146,41.685691733515,"iowa","guthrie",41.7,-94.5,1.79677719066907
"793",19079,"Hamilton County","IA",-93.7075689450696,42.3847775367362,"iowa","hamilton",42.4,-93.7,1.80501489982453
"794",19081,"Hancock County","IA",-93.7338048592702,43.0875154014866,"iowa","hancock",43.1,-93.7,3.07846888056232
"795",19083,"Hardin County","IA",-93.2394377467408,42.3871518192472,"iowa","hardin",42.4,-93.2,3.54288771434933
"796",19085,"Harrison County","IA",-95.8152210262214,41.6824831007328,"iowa","harrison",41.7,-95.8,2.32512570652224
"797",19087,"Henry County","IA",-91.5287316848654,40.9977782458375,"iowa","henry",41,-91.5,2.42653833760825
"798",19089,"Howard County","IA",-92.3160314582299,43.3628713680769,"iowa","howard",43.4,-92.3,4.33233901312612
"799",19091,"Humboldt County","IA",-94.2057228088379,42.7798938751221,"iowa","humboldt",42.8,-94.2,2.2862208022207
"800",19093,"Ida County","IA",-95.5204530146479,42.3845222555019,"iowa","ida",42.4,-95.5,2.40765285157863
"801",19095,"Iowa County","IA",-92.0514155655225,41.6956859702978,"iowa","iowa",41.7,-92.1,4.06721797207808
"802",19097,"Jackson County","IA",-90.5592176005197,42.1753868029041,"iowa","jackson",42.2,-90.6,4.33893046222681
"803",19099,"Jasper County","IA",-93.0511470496806,41.6893626592916,"iowa","jasper",41.7,-93.1,4.23040763029489
"804",19101,"Jefferson County","IA",-91.9345208981759,41.0370873349802,"iowa","jefferson",41,-91.9,5.04524231242219
"805",19103,"Johnson County","IA",-91.5747619847888,41.6796331560974,"iowa","johnson",41.7,-91.6,3.08940650452793
"806",19105,"Jones County","IA",-91.1138757920274,42.1273338404104,"iowa","jones",42.1,-91.1,3.25136913200602
"807",19107,"Keokuk County","IA",-92.1667188356726,41.3457612345218,"iowa","keokuk",41.3,-92.2,5.80499631665473
"808",19109,"Kossuth County","IA",-94.2095643483912,43.2126559811248,"iowa","kossuth",43.2,-94.2,1.6079051414964
"809",19111,"Lee County","IA",-91.4639153552481,40.6594802856218,"iowa","lee",40.7,-91.5,5.44302234789818
"810",19113,"Linn County","IA",-91.5873031616211,42.0866146087646,"iowa","linn",42.1,-91.6,1.82231887451236
"811",19115,"Louisa County","IA",-91.2484102372014,41.2305268620361,"iowa","louisa",41.2,-91.2,5.28891231032964
"812",19117,"Lucas County","IA",-93.3339832806176,41.0330962208191,"iowa","lucas",41,-93.3,4.66121241658553
"813",19119,"Lyon County","IA",-96.2069200151605,43.3808941886019,"iowa","lyon",43.4,-96.2,2.19919825074172
"814",19121,"Madison County","IA",-94.0251131911404,41.3346850677783,"iowa","madison",41.3,-94,4.39517150832666
"815",19123,"Mahaska County","IA",-92.6313773608264,41.34247571886,"iowa","mahaska",41.3,-92.6,5.40713156682333
"816",19125,"Marion County","IA",-93.0963757074459,41.3382259981575,"iowa","marion",41.3,-93.1,4.26619445982783
"817",19127,"Marshall County","IA",-92.9967761534379,42.0414953770037,"iowa","marshall",42,-93,4.62693186938079
"818",19129,"Mills County","IA",-95.616871035395,41.0349966506152,"iowa","mills",41,-95.6,4.14533919277311
"819",19131,"Mitchell County","IA",-92.7890805870129,43.3674654304123,"iowa","mitchell",43.4,-92.8,3.72784901312004
"820",19133,"Monona County","IA",-95.9612352159203,42.0466750756873,"iowa","monona",42,-96,6.10518745689156
"821",19135,"Monroe County","IA",-92.8692941414905,41.034972394854,"iowa","monroe",41,-92.9,4.6695899927789
"822",19137,"Montgomery County","IA",-95.1584879978919,41.0287738578736,"iowa","montgomery",41,-95.2,4.73549152343107
"823",19139,"Muscatine County","IA",-91.094268883748,41.4931913290723,"iowa","muscatine",41.5,-91.1,0.896267040155337
"824",19141,"O'Brien County","IA",-95.6272883979502,43.0885793178928,"iowa","obrien",43.1,-95.6,2.55622507740079
"825",19143,"Osceola County","IA",-95.626651763916,43.3843631744385,"iowa","osceola",43.4,-95.6,2.77064069831179
"826",19145,"Page County","IA",-95.1513857004719,40.7515570341128,"iowa","page",40.8,-95.2,6.77369131114711
"827",19147,"Palo Alto County","IA",-94.6841296689083,43.0914656035969,"iowa","palo alto",43.1,-94.7,1.60282709896459
"828",19149,"Plymouth County","IA",-96.204106239425,42.7304153139233,"iowa","plymouth",42.7,-96.2,3.40225062008626
"829",19151,"Pocahontas County","IA",-94.6809964786733,42.7385641474452,"iowa","pocahontas",42.7,-94.7,4.56588007425586
"830",19153,"Polk County","IA",-93.5794951176456,41.6861787104507,"iowa","polk",41.7,-93.6,2.29660193610551
"831",19155,"Pottawattamie County","IA",-95.5418639529143,41.3361271394425,"iowa","pottawattamie",41.3,-95.5,5.33153600643102
"832",19157,"Poweshiek County","IA",-92.5192646249266,41.696743647457,"iowa","poweshiek",41.7,-92.5,1.64176523564269
"833",19159,"Ringgold County","IA",-94.2508359705236,40.749757116456,"iowa","ringgold",40.7,-94.3,6.91905868301145
"834",19161,"Sac County","IA",-95.1176369275876,42.3840446909834,"iowa","sac",42.4,-95.1,2.29267629658755
"835",19163,"Scott County","IA",-90.6122569579075,41.6479753868444,"iowa","scott",41.6,-90.6,5.43718934010402
"836",19165,"Shelby County","IA",-95.3153968632868,41.6839337972841,"iowa","shelby",41.7,-95.3,2.19992066397698
"837",19167,"Sioux County","IA",-96.1701812910976,43.0824712658047,"iowa","sioux",43.1,-96.2,3.11250698983539
"838",19169,"Story County","IA",-93.4670002169688,42.0353956828086,"iowa","story",42,-93.5,4.7931121927357
"839",19171,"Tama County","IA",-92.5226526202533,42.0861851633308,"iowa","tama",42.1,-92.5,2.42198002620114
"840",19173,"Taylor County","IA",-94.704514550198,40.750661663567,"iowa","taylor",40.8,-94.7,5.50533236422453
"841",19175,"Union County","IA",-94.2515563964844,41.0323734283447,"iowa","union",41,-94.3,5.43463165887184
"842",19177,"Van Buren County","IA",-91.9382390292884,40.7600887800194,"iowa","van buren",40.8,-91.9,5.48922562721677
"843",19179,"Wapello County","IA",-92.4008828995821,41.0372284546545,"iowa","wapello",41,-92.4,4.14492520733149
"844",19181,"Warren County","IA",-93.5696977325939,41.3374629613269,"iowa","warren",41.3,-93.6,4.87991823458534
"845",19183,"Washington County","IA",-91.7012287370932,41.3440847229149,"iowa","washington",41.3,-91.7,4.90862758335975
"846",19185,"Wayne County","IA",-93.3356053301416,40.7518319345631,"iowa","wayne",40.8,-93.3,6.14538236841304
"847",19187,"Webster County","IA",-94.1827143470681,42.4262911884517,"iowa","webster",42.4,-94.2,3.25358766550272
"848",19189,"Winnebago County","IA",-93.7368171806401,43.3862901818577,"iowa","winnebago",43.4,-93.7,3.34565324907348
"849",19191,"Winneshiek County","IA",-91.8399184581713,43.2968403464644,"iowa","winneshiek",43.3,-91.8,3.25413404326357
"850",19193,"Woodbury County","IA",-96.0419653497295,42.3817219677877,"iowa","woodbury",42.4,-96,4.00560460957484
"851",19195,"Worth County","IA",-93.2608750743972,43.3855358408134,"iowa","worth",43.4,-93.3,3.55011306968811
"852",19197,"Wright County","IA",-93.7327109346757,42.737126833896,"iowa","wright",42.7,-93.7,4.92263518826856
"853",20001,"Allen County","KS",-95.3179263988584,37.8829020714693,"kansas","allen",37.9,-95.3,2.471202031524
"854",20003,"Anderson County","KS",-95.3044435796708,38.2126950149891,"kansas","anderson",38.2,-95.3,1.46588443294429
"855",20005,"Atchison County","KS",-95.3173742203031,39.5287766903576,"kansas","atchison",39.5,-95.3,3.53429640304429
"856",20007,"Barber County","KS",-98.6932920327824,37.2248405614171,"kansas","barber",37.2,-98.7,2.82860797180925
"857",20009,"Barton County","KS",-98.7557283232424,38.4749588414434,"kansas","barton",38.5,-98.8,4.7585082912886
"858",20011,"Bourbon County","KS",-94.8595888762609,37.8548709964783,"kansas","bourbon",37.9,-94.9,6.15175998891951
"859",20013,"Brown County","KS",-95.5722330285774,39.830626581969,"kansas","brown",39.8,-95.6,4.15495349548752
"860",20015,"Butler County","KS",-96.8525193254287,37.7623715803922,"kansas","butler",37.8,-96.9,5.91537946974015
"861",20017,"Chase County","KS",-96.6031333287409,38.2886059854404,"kansas","chase",38.3,-96.6,1.29738599851328
"862",20019,"Chautauqua County","KS",-96.2542589685457,37.1478923657192,"kansas","chautauqua",37.1,-96.3,6.70068657497337
